id,lat,lon,name,description
111084276,-36.8949657,174.7619076,Watling Reserve,
111134147,-36.8868988,174.7483025,Potters Park,
126540516,-36.8517898,174.8177326,Watene Reserve,
142397425,-36.8738435,174.7526720,Bellevue Reserve,
148911106,-36.8278378,174.8066860,Devonport Domain,
148913848,-36.8319118,174.7977679,Windsor Reserve,
258490285,-43.5341487,172.5903223,Harrington Park,
258980902,-36.8849400,174.7524346,Taylors Park,
262426913,-36.8729080,174.7379306,School Reserve,
265495087,-36.8883321,174.7370210,Edendale Reserve,
265810893,-36.8641386,174.7702673,Outhwaite Park,
266436631,-36.8676202,174.7520301,Aitken Reserve,
267810957,-36.8639054,174.7119154,Moa Reserve,
267856009,-36.8944320,174.7322186,Taumata Reserve,
269668949,-36.8645703,174.7544320,Virginia Reserve,
289884245,-43.5788479,172.5694072,Halswell Domain,
290083642,-41.3200098,174.7694415,Farnham Street Play Area,
290095151,-41.3436947,174.7708116,Shortland Park,
290626399,-43.5751523,172.5621249,Scott Park,
291186545,-43.6542779,172.5574397,Tai Tapu Domain,
292800311,-36.8816944,174.7133463,Braemar Reserve,
294059338,-36.9172961,174.7076055,Blockhouse Bay Recreational Reserve,
294059339,-36.9202056,174.7078630,Blockhouse Bay Recreational Reserve,
294059340,-36.9195949,174.7058975,Blockhouse Bay Recreational Reserve,
294508471,-36.8948604,174.7381074,Harwood Street,
294512329,-36.9007181,174.7312658,War Memorial Park,
301920309,-41.3086358,174.7850944,Vince Regal Play Area,
310951805,-36.8495099,174.8594136,Saint Heliers Beach,
317896549,-41.1811739,174.9334809,Kelson School,
319093231,-41.1091432,174.8328975,South Beach Access Road,
319093410,-41.1111738,174.8271040,Stuart Park,
335638830,-41.5062648,173.9504213,Pollard Park Playground,
340320348,-43.5719098,172.6387209,Holliss Reserve,
340321631,-43.5602863,172.6704353,Hillsborough Park,
346102155,-43.5525470,172.6495729,Waltham Lido Pool,
349353749,-43.5577884,172.6502209,Saint Martin's Park,
354815538,-43.5840381,172.7757753,Anaconda MTB track,
355383117,-43.5368282,172.5709658,Hillary Crescent,
356481739,-41.8019015,172.3260535,Fairfax Street,
360076275,-36.9627158,174.8793307,East Tamaki Road,
362891963,-43.5736441,172.7696125,Heberden Avenue,
369879703,-41.0824176,174.8639396,Sunset Parade,
370218125,-43.5806390,172.6039320,Sedgwick Reserve,
370220376,-43.5756213,172.6048265,Francis Reserve,
373123762,-43.3857460,172.0111693,Sheffield Domain,
373125896,-41.0942240,174.8673797,Ngatitoa Domain,
392246554,-36.8644560,174.7840803,Newmarket Park,
394267319,-43.5359567,172.5670967,Vicki Reserve,
416812678,-43.7602344,172.2976569,Pennington Street,
416812694,-43.7586641,172.2927080,Ellesmere College,
459439678,-36.8493239,174.7461182,Costley Reserve,
461559135,-36.8554290,174.7345121,Sackville Reserve,
485619360,-41.0335653,174.8872000,Wairaka Road,
489270288,-43.6279411,171.6450780,Chambers Park Playground,
503578462,-46.8981838,168.1285827,Elgin Terrace,
510129807,-43.5221877,172.6976963,Shuttle Drive,
515641186,-41.2143277,174.8723746,Te Whiti Grove,
557903887,-41.2191941,175.4609100,Health Centre Martinborough,
599440286,-41.2120038,174.8669609,Maungaraki Road,
624702232,-37.7335836,175.2537267,Flagstaff Park,
624702254,-37.7290778,175.2529391,Discovery Park,
651346785,-36.8693528,174.8710398,West Tamaki Reserve,
775437659,-41.1302592,175.0559197,Miro Street,
775452359,-41.1269884,175.0753609,Maidstone Park,
775454248,-41.1267621,175.0727216,Maidstone Max,
805148590,-41.2141444,174.9218703,Trafalgar Square,
864397909,-43.5452811,172.6376621,Wordsworth Street,
884381902,-36.5991251,174.6678875,Whares Court,
927537125,-43.5520886,172.6829700,Radley Park,
927537547,-43.5523763,172.6789038,Radley Park,
972123058,-38.6878261,176.0682442,Tongariro Street,
984958462,-43.5544828,172.6610719,Risingholme Park,
989419697,-43.5645079,172.6342313,Thorrington Reserve,
989496605,-43.5038154,172.6729102,Horseshoe Lake Reserve,
1014308431,-39.4861461,176.8886163,Humber Street,
1044342166,-39.4904379,176.9089948,Glesson Park,
1097467413,-43.6832669,172.9009491,Pigeon Bay Camping Ground,
1119823786,-45.8730752,170.4943712,Arthur Street Playground,
1119831959,-45.8701754,170.4917488,Sligo Terrace,
1127320937,-41.2651013,174.7627886,Izard Park,
1137006350,-37.9636961,177.0352879,Mahy Reserve,
1137007090,-37.9710739,177.0580117,Maraetotara Reserve,
1145096025,-35.7376680,174.3094996,Whangarei Information Centre,
1148142787,-43.7426119,173.0936565,Rue De La Mer,
1157389220,-43.5056178,172.7307055,Marine Parade,
1157389225,-43.5074437,172.7295995,Brighton Mall,
1157389273,-43.4935416,172.7202591,Sea Eagles Place,
1157389276,-43.4967015,172.7265841,Marine Parade,
1178260830,-43.4893221,172.6813027,Greenhaven Drive,
1181662816,-43.4824441,172.7018537,Cottonwood Street,
1181723306,-43.4795376,172.7096654,Stoneleigh Green,
1181760172,-43.4728878,172.7077787,Bottle Lake Forest Park,
1181785945,-43.4730328,172.7013266,Bottle Lake Forest Park,
1181801023,-43.4768419,172.7010799,Bottle Lake Forest Park,
1181997742,-43.4853896,172.7225950,Southern Pegasus Bay Track,
1182144317,-43.4816779,172.7187224,Aston Reserve,
1184916106,-43.4895329,172.6870587,Travis Wetland,
1184958420,-43.4992795,172.6970903,Brooker Avenue,
1185013814,-43.4834304,172.6991155,Medina Crescent,
1185054979,-43.4721242,172.6928673,Bottle Lake Forest Park,
1185517841,-43.4741212,172.6956060,Bottle Lake Forest Park,
1185521247,-43.4801412,172.6856081,Burwood Spinal Unit,
1185686806,-43.4756568,172.6891731,Bottle Lake Forest Park,
1188727923,-43.5200924,172.6847965,Cuffs Road,
1188762374,-43.5223688,172.6974954,Shuttle Drive,
1190620925,-43.5212767,172.7070416,Woodlands Place,
1190621115,-43.5208809,172.7105363,Bexley Park,
1190786634,-43.5440736,172.6933771,Bayswater Reserve,
1193845081,-43.5282507,172.6818420,Bromley Park,
1193863327,-43.5133381,172.7127264,Bexley Park,
1193867164,-43.5162727,172.7220185,Harold Henry Park,
1193931535,-43.5217979,172.7062286,Rosanna Place,
1193959828,-43.5174344,172.7037465,Merrington Crescent,
1193959883,-43.5176805,172.7038563,Merrington Crescent,
1201336832,-43.6071172,172.6996969,Coast Track,
1227526833,-45.8466303,170.5190723,Wilkinson Street,
1239453241,-37.7964539,175.3267176,Jansen Park,
1239453242,-37.7966588,175.3223118,Hillcrest Park,
1246311143,-37.8013922,174.8649890,Kopua Reserve,
1246427377,-37.7997522,175.2713290,Innes Common,
1259073925,-41.2292319,174.8034353,Gilbert Young Play Area,
1263107223,-43.5687832,172.6377176,Remuera Reserve,
1268588500,-36.8334224,175.7076446,The Esplanade,
1279893235,-43.4773233,172.7037909,Belgrove Place,
1279902218,-43.4814312,172.7042103,Chadbury Street,
1321319684,-45.8829057,170.4976686,Market Reserve,
1327733019,-40.8583529,172.8056187,Commercial Street,
1411729772,-41.1413279,175.0141111,Heretaunga Park,
1437199439,-43.5662732,172.6519696,Huntsbury Reserve,
1520791140,-43.5497006,172.6401676,Walton Street,
1541466273,-43.5524455,172.6735267,Radley Playground,
1541513824,-43.5614333,172.6777086,Curries Road,
1564435161,-42.4134256,173.6906995,Esplanade,
1564435181,-42.4040698,173.6785942,Fyffe Avenue,
1564435189,-42.4049502,173.6802914,Deal Street,
1564435200,-42.4065663,173.6847332,Kaikoura Skate Park,
1568917390,-41.5288114,173.9372976,Playground,
1595343263,-41.3239216,174.8154124,Crawford Green playground,
1621253498,-40.3023144,175.7571955,,
1627783735,-40.9484579,175.6668672,Queen Elizabeth Park,
1628041829,-41.7533162,171.6008043,Lyndhurst Street,
1655359810,-43.5346297,172.5816324,Middleton Park,
1655359839,-43.5347386,172.5815385,Middleton Park,
1660175410,-36.9735029,174.6174020,,
1661853984,-37.7260794,175.2493532,Trinidad Place,
1676392873,-40.6253321,175.2820104,Levin Adventure Park,
1676593726,-37.7225829,175.2658223,Moonlight Drive Reserve,
1689891770,-40.3567090,175.5873442,Farnham Park,
1693028059,-40.3562310,175.6220960,Milverton Park,
1694344713,-43.1557068,172.7287296,Church Street,
1694349483,-43.1494373,172.7210853,Douglas Road,
1696029968,-40.3694691,175.6050538,Savage Crescent,
1702317913,-40.3632812,175.5903295,Monrad Park,
1703377423,-40.3636661,175.5767382,David Spring Park,
1703862817,-40.3568621,175.5804411,Bill Brown Park,
1703882169,-40.3688711,175.5814705,Chippendale Reserve,
1705464651,-37.1521522,174.6987426,Te Toro Road,
1707564661,-40.3581650,175.5913650,Botanical Road,
1707628494,-40.3777139,175.5926551,Riverdale Park,
1711777685,-40.3588725,175.6362640,Newcastle Street,
1712138281,-37.0571475,174.6661128,Grahams Beach Road,
1712138282,-37.0504916,174.6619033,Hudson Road,
1714970742,-40.3320646,175.6106820,Milson School,
1715022873,-40.3342466,175.5995081,Colquhoun Park,
1715033182,-40.3569615,175.5692249,Newton Park,
1716882072,-40.3761258,175.5807012,Rangitane Park,
1716883076,-40.3825280,175.5860694,Rangitane Park,
1717235601,-40.3648669,175.6443643,Waterloo Park,
1717235643,-40.3634690,175.6374012,Ross Place,
1719059625,-46.3251124,168.8499892,Raglan Street,
1720907679,-40.3466923,175.6340929,Memorial Park,
1720907695,-40.3416099,175.6338694,Rangiora Park,
1720907708,-40.3274265,175.6211899,Palmerston North International Airport,
1720907711,-40.3374412,175.6393323,Clyde Crescent Reserve,
1720923624,-40.3605074,175.5868790,Highbury Avenue,
1720923625,-40.3553977,175.5722986,Kimberley Park,
1722640706,-43.5139403,172.5921793,Jeffreys Road,
1722735325,-40.3531761,175.6040453,Campbell Reserve,
1726013834,-40.3850602,175.6385130,Peren Park,
1727262925,-43.5224951,172.6441066,Moa Place,
1729816082,-40.3576641,175.6307566,Hokowhitu Domain,
1730240649,-40.3263789,175.6548028,Schnell Drive,
1738008783,-40.3280705,175.6051740,Apollo Park,
1744549846,-40.3209334,175.6549503,Parnell Heights Reserve,
1746893341,-40.3276416,175.6472140,Kelvin Grove Park,
1772057396,-41.2713771,174.7797392,Katherine Mansfield Memorial Park,Wheelchair: limited;
1775771764,-36.8644084,174.7843050,Newmarket Park,
1776913305,-41.1274273,174.8653621,Aotea Drive,
1777945983,-41.1127067,174.8645288,Annan Grove Playground,
1782481410,-42.7746330,172.8462610,State Highway 7,
1789195168,-41.0756220,175.4585549,Memorial Baths,
1796844299,-36.8808992,174.9936400,Sunkist Bay Reserve,
1796866771,-36.8862048,174.9949006,Sunkist Bay Road,
1804873845,-35.2619322,174.1236474,Russell Primary School,
1831457276,-36.8606195,174.6552287,Bridge Ave Reserve,
1862194470,-40.6379770,175.2948893,Solway Park,
1862579321,-40.5936293,175.1856835,Hokio Stream,
1862584327,-40.6100751,175.2656242,Lake Horowhenua Domain,
1881949694,-36.9159717,174.7989890,Fong Park,
1882023878,-36.8678131,174.7939703,Waitaramoa Reserve,
1903379910,-36.8747860,174.6362742,Tui Glen Reserve,
1903593178,-36.8859514,174.8016623,Ascot Park,
1905100573,-36.9290944,174.7595851,Bluff Terrace,
1906557461,-40.6145383,175.2768938,Western Park,
1912339352,-43.4976915,172.6167620,Erica Street,
1912418148,-40.3393989,175.8681386,Woodville Playground,
1913939154,-40.4490945,175.8439220,Main Street,
1915001637,-36.9006372,174.8022635,Konini Reserve,
1930489468,-40.2221605,175.5833493,Timona Park,
1933112473,-41.3134138,174.7826570,Te Ara Hau,
1933177414,-36.8543794,174.7802258,Auckland Domain,
1942206359,-40.6225995,175.2972276,Maire Street Reserve,
1945586209,-36.9607878,174.9321984,Mission Heights Reserve,
1948903944,-36.9413051,174.6363732,Waima Reserve,
1950041923,-43.5475423,172.6495110,Thackeray Reserve,
1974681771,-45.8647701,170.5032392,Queens Drive,
1977514010,-45.8697380,170.4848981,Falcon Street,
1977514043,-45.8698932,170.4845813,Falcon Street Playground,
1985225434,-39.0562319,174.0610862,Coastal Walkway,
1989396075,-41.2499201,174.8073791,Hutt Road,
2010252057,-36.9790852,174.8715652,Allenby Park,
2069607677,-36.8768982,174.6987189,Kuaka Park,
2069607683,-36.8770651,174.6986424,Kuaka Park,
2085588471,-36.8275540,174.7906737,Kiwi Reserve,
2100701671,-41.2173260,174.8729100,London Road,
2100714146,-36.8585600,174.8453497,Madills Farm,
2100777805,-40.2919612,175.7538919,Winchester  Street,
2100788927,-40.4151154,175.5934066,Dieppe Place,
2101051213,-40.1775525,175.3823587,Devon Crescent,
2101161537,-39.9390817,175.0367013,Carlton Avenue,
2101263779,-38.4656717,175.0188753,Tui Street,
2102386216,-40.3825663,175.6253776,Atawhai Park,
2108649634,-36.7938476,174.7380440,Stanaway Street,
2131628406,-37.0026202,175.8683279,Paku Drive,
2131628419,-37.0216399,175.8655122,Chelmsford Close,
2131628437,-37.0241215,175.8607021,Jubilee Drive,
2143515938,-35.2840014,174.0896924,school playground,
2143517533,-35.2840014,174.0902932,school playground,
2151119144,-40.4692699,175.2404467,Flagstaff Street,
2152611681,-36.7579632,175.4987810,Playground,
2159898536,-36.8405109,175.8018321,Hahei Beach Road,
2159898704,-37.6984276,176.1652510,Fraser Street,
2159898774,-38.1349110,176.2451434,Kuirau Park,
2159898785,-38.1344891,176.2452507,Kuirau Park,
2161950874,-39.9147162,175.0297696,Playground,
2163459207,-43.4872484,172.5840864,Bishopdale Playground,
2163562115,-37.7965827,175.3192817,Hillcrest Park,
2164602866,-43.5270144,172.6197570,North Hagley Park,
2164851915,-43.4990997,172.5935178,Edgar McIntosh Park playground,
2166319192,-41.2520466,173.0947646,Playground,
2169881756,-43.5315509,172.5601731,Coleman Avenue Playground,
2170380390,-40.4691743,175.2402396,Jones' Playground,
2172248086,-43.3856758,171.9086338,Springfield Glider Airfield Playground,
2172293183,-43.3346033,172.6433954,Tuahiwi playground ,
2172568605,-43.5321926,172.5894724,Paeroa Reserve Playground,
2174672003,-43.5081117,172.6362715,Saint Albans School,
2174672010,-43.4987422,172.6238582,Rutland Street Park,
2174672014,-43.4997461,172.6208327,Paparoa Street School,
2174672044,-43.5074736,172.6352093,Saint Albans School,
2174672056,-43.4991753,172.6220671,Rutland Street Park,
2174672061,-43.4948430,172.6467536,Kellys Road,
2174672068,-43.5100842,172.6150821,Heaton Normal Intermediate School,
2174672073,-43.5102904,172.6326666,Massey Crescent,
2174672078,-43.5051006,172.6306930,Malvern Park,
2185100371,-46.1001102,168.9426435,Fairfield Street,
2189092060,-46.3864432,169.7765828,Matai Street,
2189092061,-44.0994523,170.8294846,Talbot Road,
2189344053,-44.0978725,170.8320167,Fairlie TOP10 Holiday Park,
2241059402,-37.8056897,175.3006145,Rose Garden Carpark,
2243073601,-41.3280897,173.2158967,Children's Playground,
2287848929,-36.3007701,174.7987031,Grand View Road,
2292179847,-41.2795210,173.2490889,Lions Playground,
2292179848,-41.2796101,173.2500625,Tahunanui Recreation Reserve,
2295704707,-39.4791526,176.9002261,Rotary Pathway,
2296612970,-40.4132077,175.5932218,Jervois Road,
2332606015,-41.2690729,174.7596018,Gloucester Street,
2361270125,-45.8558755,170.5196443,Band Rotunda,
2375692323,-40.2304289,175.5583049,Kowhai Park,
2376690552,-40.2298432,175.5604292,South Street,
2378502570,-43.5208935,172.5643772,Westmont Street,
2397952245,-39.4967664,176.9192082,Cycle / Traffic Learning,
2401060666,-45.8715285,170.3489295,Memorial Gardens,
2406807314,-41.2625597,173.2952365,Neale Park,
2409597159,-41.5090288,173.8648685,Woodward Street,With: swing ;
2409597162,-41.5091102,173.8628285,Caldwell Road,With: seesaw;swing ;
2409597168,-41.5092625,173.8596279,Caldwell Road,With: swing ;
2409597173,-41.5106938,173.8650696,Woodward Street,With: swing ;
2409597176,-41.5114919,173.8633754,Woodbourne Community Centre,
2433504894,-37.7873522,175.3332299,Chelmsford Park,
2466346495,-43.5140120,172.6307546,Abberley Park,
2466349161,-43.5106760,172.6450135,St Albans Park,
2481947126,-37.8288711,175.2860005,Resthills Park,
2482184141,-38.8901927,175.7682090,Whiowhio Recreational Area,
2485965633,-37.8622651,175.3521422,Te Awa Reserve,
2508218699,-36.7983971,174.7293262,Monarch Reserve,
2584573782,-37.7705544,175.2576538,Bolmuir Park,
2589977356,-37.7419613,175.2363608,Ashurst Park,
2599247922,-37.7586325,175.2769183,Donny Park,
2605875414,-37.7825426,175.2389287,Elliot Park,
2607603699,-37.7517280,175.2505672,Waiwherowhero Park,
2611917730,-37.7515420,175.2705900,Chartwell Park,
2613078595,-37.7584861,175.2552800,Heath Park,
2617015808,-37.7381545,175.2684062,Potter Trust Playground,
2617015810,-37.7311020,175.2651432,Grosvenor Park,
2626678739,-37.7941017,175.3134399,Edinburgh Park,
2631840397,-41.3182086,174.7795314,South Wellington Intermediate School,
2634698411,-41.3028048,174.8016703,Kainui Reserve,
2634781450,-37.7497827,175.2328653,Te Awa,
2644612754,-36.9150982,174.7730102,Royal Oak Intermediate School,
2648541569,-36.7753657,174.6713931,Collins Park,
2651275676,-40.3354496,175.6278583,Thames Street,
2670929971,-37.7810439,175.2257662,Brymer Glen,
2671083146,-36.8705752,174.7558306,Edenvale Reserve,
2672384305,-44.6829300,169.1835780,McMurdo Park,
2688875305,-43.5806936,172.5989856,Highcrest Reserve,
2691894958,-43.3250053,172.6641001,Woodend School Playground,
2691967431,-46.2388738,169.7308265,Naish Park,
2692053391,-43.4988210,172.6047852,St James Park Play area,
2692177066,-42.3830847,173.6796775,Play Ground,
2695804320,-46.4509091,169.6596561,Main Road,
2697120002,-43.5173115,172.5411203,Pinehurst Reserve,
2699653387,-41.3430558,174.7789356,Orchy Crescent,
2703589542,-41.3258478,174.8368733,Ludlam Street,
2703866161,-41.3344716,174.7878253,Houghton Valley School,
2708593816,-41.2898629,174.7227182,Karori West Normal School,
2708593924,-41.2853656,174.7172829,Buxton Avenue,
2710424392,-41.2862209,174.7408887,Victoria University of Wellington College of Education,
2710575013,-41.2828731,174.7548509,Creswick Terrace,
2720036815,-43.6597131,172.7083620,,
2722966262,-41.2823475,174.7439060,St Marys Church,
2724110759,-43.4708531,172.6222531,Murchison Park,
2730169599,-41.3239999,174.8102861,Miro Street,
2759855073,-43.5610627,172.6779294,Curries Road,
2780633866,-38.1142664,176.3077661,Willow Avenue,
2780835300,-41.3131146,174.7747011,Macalister Park,
2784580208,-43.6010070,172.3763807,Parekura Reserve,
2792357262,-40.4609346,175.2198326,Bond Street,
2798038215,-41.3031695,174.8233387,Miramar North Road,
2798199752,-41.3067194,174.8181615,Akaroa Drive,
2798476555,-40.6210159,175.2828571,Levin Domain,
2810315570,-43.5969512,172.3807553,Rolleston Domain,
2810316441,-43.6097547,172.3640130,Brookside Park,
2812305895,-40.6101074,175.2661232,Lake Horowhenua Domain,
2830283041,-40.6209928,175.2830659,Levin Domain,
2830592943,-41.3262936,174.8379953,Seatoun School,
2835216169,-41.3238555,174.7860665,Melrose Park,
2837550773,-40.1682779,175.3851959,Bulls School,
2946067690,-43.8977588,171.7547335,Ashburton Domain,
2946067693,-43.4872450,172.5839641,Bishopdale Park,
2946068978,-43.9084706,171.7461623,Mona Square,
2949112077,-43.6168197,172.3881477,Castleton Crescent,
3118023209,-41.3219763,174.7734067,Chilka Street,
3141192035,-36.8877723,174.6811256,Fonteyn Street,
3151985693,-45.8650292,170.4855532,Taieri Road,
3151985694,-45.8564266,170.4819140,Mayfield Avenue,
3151985695,-45.8602737,170.4959240,Highgate,
3151985696,-45.8816588,170.4831454,Mornington Park,
3151985697,-45.8389388,170.6474338,Portobello Road,
3168238096,-42.4066303,173.6734113,Shearwater Drive,
13916465,-43.3032256,172.5855569,Elephant Park,
24617396,-41.2998619,174.7675357,Central Park playground,
24618969,-36.9054953,174.7372236,War Memorial Park,
24707252,-45.0978769,170.9610630,Chelmer Street,
26020339,-41.2989264,174.7885987,Pirie Street Play Area,
26110584,-36.9192713,174.7542910,West Park,
26154909,-36.8960418,174.7246648,Delphine Close,
26296132,-36.9336400,174.7352393,Waikowhai Park,
26491518,-36.8879726,174.7058927,Harbutt Reserve,
26563688,-36.9086958,174.7471701,John Moore Reserve,
26584817,-41.2963263,174.7985541,Hepara Play Area,
26640046,-41.3194722,174.7840214,Newtown Park,
26640611,-36.9269589,174.7223379,The Avenue,
26742344,-41.2954713,174.7525589,Zealandia,
26805260,-36.8915370,174.6979258,Henry Reserve,
27031044,-36.9213635,174.7213412,Margaret Griffen Park,
27148154,-36.8732640,174.7268756,Fowlds Park,
27323423,-36.9223729,174.7422222,Keith Hay Park,
27350825,-36.8147379,174.7483044,Stafford Park,
27395559,-36.8845904,174.7705256,Kohia Terrace School,
28968684,-36.8523639,174.7248348,Cox's Bay Reserve,
29174480,-36.8937635,174.6800378,Riversdale Reserve,
30791744,-43.5654735,172.6478027,Centaurus Road,
30932304,-43.5552643,172.6692852,Erie Monro Playground,
30932543,-43.5803811,172.7068922,Heathcote Domain,
31372843,-43.5611358,172.6600895,Hansen Park,
31888426,-41.1185001,174.8584011,Aotea Lagoon Playground,
32194814,-41.1136050,174.8934532,Whitby Walkway Playground,
33073783,-41.1117203,174.9034650,Endeavour Park,
33831150,-43.5789931,172.5694608,Halswell Domain,
33831151,-43.5787864,172.5693845,Halswell Domain,
33831152,-43.5789641,172.5690507,Halswell Domain,
33832429,-43.5780826,172.5728288,Halswell Domain,
33858900,-43.5579265,172.5820564,Bean Street,
33904132,-43.5704827,172.5560414,Westlake Park,
34088775,-43.5889638,172.6430874,Victoria Park,
34228739,-43.5747662,172.5626026,Scott Park,
34408756,-43.5752163,172.5557720,Ridder Reserve,
34408757,-43.5751497,172.5561298,Ridder Reserve,
34408758,-43.5775094,172.5564843,Ridder Place,
34408759,-43.5773759,172.5591813,Wales Reserve,
34547223,-36.8749617,174.7148640,Rawalpindi Reserve,
34738868,-43.5865806,172.5648660,Country Palms Drive,
35024517,-43.5555404,172.5369394,Warren Park,
35062089,-43.5657254,172.6125158,Centennial Park,
35348395,-43.5856156,172.5136329,Prebbleton Domain,
35677721,-44.3908832,171.2250632,West End Park,
37279471,-36.9121429,174.6973234,Temuka Gardens,
37757384,-36.8648456,174.7218845,Western Springs Lakeside Park,
38093346,-36.9254661,174.7409408,Molly Green Reserve,
39083789,-36.8593947,174.7289653,Francis Reserve,
39668204,-36.8692766,174.6976116,Eric Armishaw Park,
39717763,-43.2949757,172.5807084,Regent Park,
39809957,-36.8542960,174.7161697,Tirotai Reserve,
42345724,-45.2463065,169.3793074,Blackmore Crescent,
43153674,-36.8495139,174.7854035,Gladstone Domain,
44540244,-36.8731816,174.6150587,Playground,
44771293,-36.8754388,174.8094453,Little Rangitoto Reserve,
45887149,-36.8789427,174.6292102,Henderson Park,
47332317,-36.8718150,174.8775597,Wai-o-taki Nature Reserve,
47851740,-36.8844415,174.6342984,Hart Domain,
48017394,-43.5289181,172.5642555,Upper Riccarton Domain,
48102998,-36.9256960,174.6419517,Annison Green,
48139136,-36.8931636,174.6369943,Blueridge Close,
48484601,-36.8860016,174.6165197,Shona Reserve,
49037333,-36.9437669,174.8468339,Murphy Park,
50338988,-36.9280534,174.6897298,Craigavon Park,
50881314,-36.9111560,174.7015093,Blockhouse Bay Road,
51257802,-36.8609135,174.6353295,Central Park Drive,
51754640,-36.8479801,174.7546535,Victoria Park,
52229757,-43.5621894,172.6469288,children's playground,
54509020,-38.0455242,175.7887136,Galway Crescent,
54602501,-37.7601609,175.7546874,Waharoa School,
54835192,-37.6621704,175.5256196,Morrinsville Recreation Reserve,
55422825,-43.7494779,172.0155298,Rakaia Domain,
55565407,-36.8744397,174.6371183,Tui Glen Reserve,
55780908,-36.8869457,174.7482491,Potters Park,
56058776,-36.8849704,174.7526737,Taylors Park,
56058953,-36.8796826,174.7389357,Gribblehirst Park,
56058954,-36.8796623,174.7385566,Gribblehirst Park,
56058955,-36.8797054,174.7383919,Gribblehirst Park,
56409362,-36.8623553,174.6028816,Corran Avenue,
56409368,-36.8579097,174.5968207,Urlich Esplanade Reserve,
56414661,-36.8700966,174.6049306,Ferngrove Park,
56750371,-36.8670889,174.6108090,Riserra Drive,
57690400,-36.8584213,174.6088037,Don Buck Corner,
57888297,-36.8844817,174.6478363,Cron Reserve,
58161814,-36.8892921,174.6504374,Glendene Reserve,
58198802,-36.8847893,174.6478748,Cron Reserve,
58216449,-36.9009479,174.6698289,Copley Street,
58230764,-36.8161421,174.6420337,Luckens Reserve,
58621382,-36.8251642,174.6209492,Jadewynn Drive,
58621391,-36.8290809,174.6302165,Moire Park,
58636816,-36.8228117,174.6338702,Moire Park,
58765131,-36.8107661,174.6391764,Marina View Reserve,
58765137,-36.8124989,174.6348806,Tornado Reserve,
58765141,-36.8029008,174.6471874,Oak Park,
58765146,-36.8064434,174.6384440,Hendrika Reserve,
58765147,-36.8066523,174.6385340,Hendrika Reserve,
58765431,-36.8034848,174.6414046,Connemara Reserve,
59036266,-36.8573955,174.6244978,Kingdale Reserve,
59174615,-36.8618882,174.6306406,Te Pai Park,
59174618,-36.8648096,174.6257817,Fairdene Reserve,
59174619,-36.8648537,174.6257001,Fairdene Reserve,
59174622,-36.8686696,174.6354156,Epping Esplanade,
59279219,-36.8669900,174.6002191,Ranui Domain,
59279220,-36.8346827,174.6144832,Kemp Park,
59279226,-36.8645194,174.6223187,Liston College,
59279234,-36.8712040,174.6210631,Featherstone Park,
59279238,-36.8404773,174.6046261,Gallony Park,
59279240,-36.8641807,174.6183238,Alan Reserve,
59280387,-36.8389089,174.6060690,Emerald Valley,
59280395,-36.8388593,174.6062196,Emerald Valley,
59281709,-36.8687375,174.6003179,Pooks Reserve,
59316130,-36.8594715,174.6032400,Starling Park,
59458304,-36.8550463,174.7526594,Western Park,
59528807,-36.8598770,174.6037502,Starling Park,With: skateboard ;
59528848,-36.8602164,174.6036021,Starling Park,
59528851,-36.8607529,174.6056460,Starling Park,
59575377,-36.8618640,174.5975127,Urlich Esplanade Reserve,
59575468,-36.8611983,174.5949629,Urlich Esplanade Reserve,
59936916,-36.8325104,174.6364080,Spargo Reserve,
59945328,-36.6640167,174.4373762,Te Moau Avenue,
60237253,-36.8805539,174.6106364,Gus Nola Park,
60309788,-36.8367420,174.6533292,Footpath,
60346968,-36.8981599,174.6207815,McLaren Park,
60346970,-36.9007267,174.6198879,Starforth Place,
60710517,-36.9316713,174.6834870,Cliff View Drive,
60729335,-36.9175536,174.6357054,Virgo Common,
60729344,-36.9277169,174.6663357,Crum Park,
60729353,-36.9154189,174.6368738,Prospect Park,
60729367,-36.9275863,174.6664430,Crum Park,
60729385,-36.9200815,174.6501771,Ceramco Park,
60729386,-36.9293638,174.6650475,Crum Park,
60729402,-36.9268984,174.6564928,Chamari Close,
60786374,-36.8971165,174.6451821,Awaroa Park,
60786508,-36.8943235,174.6487765,Lydford Place,
60787878,-36.8996147,174.6381319,McKinley Park,
60854988,-36.9063755,174.6280850,Parrs Park,
61559716,-37.0329029,174.8613361,De Bloge Place,
61848248,-36.9098170,174.6927541,Olympic Park,
61848262,-36.9090122,174.6905336,Olympic Park,
61851560,-36.8304181,174.4282952,Motutara Road,
61851903,-36.7688761,174.5343517,Huapai Reserve,
61851907,-36.7709673,174.5369525,Huapai Reserve,
61852912,-36.7618832,174.5890045,Riverhead War Memorial Park,
61886019,-36.9317605,174.6788531,Barron Green,
61886268,-36.9244871,174.6343929,Foothills Lane Reserve,
61888064,-36.8862190,174.6881737,Eastdale Reserve,
61888104,-36.8860799,174.6880162,Eastdale Reserve,
61954775,-36.9301068,174.6757364,La Rosa Gardens,
62249577,-36.9262928,174.8782963,Raewyn Place,
62260075,-36.9089435,174.9152147,Woodview Rise,
62260084,-36.9088749,174.9138671,Gosford Drive,
62721310,-36.8952349,174.8190442,Michaels Avenue Reserve,
63023258,-36.8653990,174.6060602,Ranui School,
63060687,-36.8988097,174.6264866,Chislehurst Street,
64201915,-36.9190445,174.7427302,Keith Hay Park,
64206501,-36.8799094,174.7252191,Rocket Park,
65596827,-36.9795045,174.8031760,Cyclamen Road,
65623544,-36.9444784,174.9667142,Whitford Village Green,
67311688,-36.9792463,174.9047085,Innisowen Place,
67311696,-36.9761611,174.9008479,Nuneaton Drive,
67314128,-36.9842322,174.9045621,Earnslaw Park,
67327889,-37.0011275,174.9119453,Adventure Playground,
67476271,-36.9624450,174.8209172,Ferguson Street,
68169046,-37.0786364,174.9244059,Thornton Green,
68169241,-37.0600229,174.9692744,McIntosh Reserve,
68169371,-37.0648226,174.9660024,Carrisbrook Reserve,
68313143,-37.0548258,174.9641068,Cargill Street,
68313145,-37.0574099,174.9695833,Elsie Morton Place,
68497926,-36.9001012,174.7092686,Alan Wood Park,
70398274,-36.7736118,174.7030338,Lynn Reserve,
71295845,-36.7372180,174.6877041,Harkin Close,
71298557,-36.7211434,174.7054471,Hooton Park,
71299324,-36.7135360,174.7232993,Gleanor Avenue,
72521292,-37.0517258,174.9244194,Longford Park Link reserve,
72524782,-37.0540689,174.8803864,Kauri Point  Reserve,
72524796,-37.0450627,174.8964006,Tington Park,
72536975,-36.7604418,174.7286233,Rewi Alley Reserve,
72537000,-36.7653166,174.7266855,Julia Place,
72537001,-36.7645458,174.7294039,Leiden Place,
73324167,-36.8584227,174.8452055,Madills Farm,
73550920,-36.8089010,174.7517119,Onepoto Domain,
73550925,-36.8088391,174.7512154,Onepoto Domain,
73993526,-36.7327122,174.7530578,Beach Road,
73995126,-36.7325437,174.7263792,Hugh Green Drive,
74866505,-36.6246387,174.7323834,Charlotte Street,
74873572,-36.6228292,174.7162251,Weiti Views Reserve,
74873579,-36.6440471,174.7408294,Ferry Road,
75371533,-36.6167292,174.7170277,Shadon Rise,
76263175,-36.8769908,174.7095827,200 Animal Emergency Centre,
76950616,-36.7568761,174.7466439,Linwood Avenue,
79156111,-36.8676762,174.7364460,Arch Hill Scenic Reserve,
79156113,-36.8677040,174.7363340,Arch Hill Scenic Reserve,
79293261,-36.9545250,174.4721399,Playground,
80216782,-36.8846859,175.0156372,Te Puru Park,
80216839,-36.8803689,175.0426064,Maraetai park,
80216840,-36.8798186,175.0419016,Maraetai park,
80315689,-36.9222114,174.9273760,Santa Cruz Drive,
80336417,-36.9033530,175.0668230,Umupuia Park,
80339277,-36.8807532,174.9939663,Sunkist Bay Reserve,
80339280,-36.8787864,175.0007867,Playground,
80915148,-36.8858987,174.8205763,Waiatarua Reserve,
81139989,-36.9591023,174.9143797,Barry Curtis Park,
81631066,-36.7384766,174.6983664,Brookfield Park,
82005034,-36.7786579,174.7397211,Locket Road,
82011566,-36.7362596,174.7330551,Playground,
82020264,-36.7271053,174.7217909,Taroka Close,
82030867,-36.7544617,174.7397304,Sunnynook Park,
82030883,-36.7584851,174.7406830,Sunnynook Park,
82032889,-36.7598841,174.7348242,Flying Fox,
82032896,-36.7597657,174.7350416,Flying Fox,
82051615,-36.7549624,174.7086946,Bluebird Crescent,
82051621,-36.7609814,174.7186040,Goldfinch Rise,
82051648,-36.7562603,174.7223095,Exeter Place,
82051676,-36.7614220,174.7142746,Bronzewing Terrace,
82059198,-36.7531057,174.7218642,Meadowood Reserve,
82059207,-36.7529598,174.7220648,Playgrounds,
82059214,-36.7553265,174.7242144,Devonshire Reserve,
82065955,-36.7369395,174.7116447,Bushlands Park Drive,
82162524,-36.7732012,174.7284267,Normanton Reserve,
82162526,-36.7781337,174.7197161,Lancelot Reserve,
82162801,-36.7837325,174.7339175,Marlborough Park,
82600734,-36.6086622,174.6831997,Springtide Place,
82600741,-36.6086627,174.6832263,Springtide Place,
82606761,-36.6062546,174.7082231,Flying Fox,
82607322,-36.6346181,174.7533047,Edith Hopper Park,
82886188,-37.1870618,174.8341551,Patumahoe Childrens Playground,
83016026,-37.2076696,174.8931434,Rosa Birch Park,
83017199,-37.2133029,174.9029573,OConnor Drive,
83017200,-37.2134049,174.9029930,OConnor Drive,
83086570,-37.2376634,174.7244121,Dawn Place,
83090724,-37.2490530,174.7321031,Kitchener Road,
83090726,-37.2476717,174.7281856,Kevan Lawrence Park,
83090759,-37.2415825,174.7427304,Rata Street,
83165617,-36.8508881,174.7406412,Tole Reserve,
83591778,-36.6291673,174.7587159,Laurence Street,
83591792,-36.6209264,174.7704541,Hardley Reserve,
83997548,-36.9845164,174.8387055,Ferndown Avenue,
83997550,-36.9840964,174.8350630,Caringbah Drive,
84121904,-36.9584218,174.8245599,Sutton Park,
84121917,-36.9523351,174.8092877,Harania Avenue,
84277965,-36.5812737,174.6775741,Astor Place,
84529068,-36.5845456,174.6888343,Victor Eaves Park,
84625793,-43.3025895,172.0583928,View Hill Domain,
84955821,-36.5803912,174.6902221,Brunton Park,
85122589,-43.5145995,172.5431440,Manson Place,
85129052,-36.5922659,174.6859805,Maygrove Park,
85133685,-36.5904236,174.6982185,Orewa Recreation Reserve,
85134013,-36.5894513,174.6977653,Orewa Recreation Reserve,
85254233,-36.5700885,174.6875110,Jamie Hanson Playpark,
85254846,-39.4955277,176.9191014,Marine Parade,
85321662,-41.1202862,174.8906621,Adventure School,
85321665,-41.1206329,174.8907754,Adventure School,
85321666,-41.1204225,174.8900118,Adventure Kindergarten,
85373581,-36.9696967,174.9024163,Robin Brooke Drive,
85384894,-36.9327210,174.9053072,Huntington Park,
85386086,-36.9509759,174.9076728,Monash Place,
85387124,-36.9807325,174.8980485,Dissmeyer Drive,
85439120,-36.9975279,174.8926623,Keri Anne Place,
85695254,-36.5942457,174.6998763,Orewa Recreation Reserve,
85796786,-36.7174328,174.7356602,Sherwood Reserve,
85887427,-36.7069376,174.7288447,Cairnbrae Reserve,
85887434,-36.7064042,174.7346781,Cranston Street,
85892310,-41.2786735,174.7266170,Montgomery Avenue Play Area,
85933805,-36.9759997,174.8948347,Othello Drive,
85933871,-36.9790321,174.8945424,Huntly-Otahuhu 220kV,
85934564,-36.9886082,174.8917805,Courant Place,
85934572,-36.9874289,174.8879741,Sikkim Crescent,
85937112,-36.9866337,174.8957180,Rotoma Rise,
86611813,-37.0029362,174.9133191,Childrens Neighbourhood Park,
86614682,-37.0242892,174.9141896,Randwick Park,
86614684,-37.0306896,174.9123935,Trimdon Street,
86615465,-37.0419644,174.9131152,Balgowan Terrace,
86615466,-37.0397919,174.9134574,Challen Close,
86821380,-46.0627586,168.8270172,Dolamore Park Play Ground,
86831657,-36.7023217,174.7517087,Waiake Reserve,
86980300,-37.0266876,174.9211006,Papakura Stream,
87217481,-46.3833536,168.3599487,,
87223259,-36.9545479,174.8133107,Boggust Park,
87321548,-36.7215878,174.7503750,Masterton Road,
87321549,-36.7142093,174.7492483,Beach Front Lane,
87325405,-37.2053174,174.9033742,John Street,
87348064,-36.9707774,174.8378722,Milton Park,
87498403,-36.9135111,174.8985498,Lloyd Elsmore Park,
87498740,-36.9076098,174.8936585,Marvon Downs Avenue,
87499295,-36.8889187,174.9068604,Glennandrew Drive,
87499298,-36.8900246,174.9060235,Pakuranga Domain,
87501034,-36.8850958,174.8963032,Ursula Place,
87503353,-36.8915101,174.8984329,Prince Regent Drive,
87506607,-36.8912827,174.9134161,Marendellas Drive,
87507726,-36.9216906,174.8957028,Burswood Drive,
87508408,-41.1181253,174.8927187,Whitby Lower Lakeside Path,
87573787,-43.4907911,172.6191935,Christchurch Top 10 Holiday Park,
87897398,-36.9528432,174.8555358,Firth Crescent,
87899224,-36.8538378,174.7397401,Vermont Reserve,Surrounded by a  fence;
88096012,-36.9741041,174.8813594,Elsa Lane,
88096014,-36.9717354,174.8532761,Coates Road,
88189593,-38.9854997,175.8021227,Te Aonini Road,
88196473,-38.9873260,175.8092628,Te Kapua Park,
88196475,-38.9919863,175.8144041,Taupahi Road,
88196480,-38.9921610,175.8140994,Taupahi Road,
88326376,-38.0944177,176.7016166,Seddon Street,
88333474,-38.0973769,176.6926208,Hilldale Reserve,
88353239,-37.0230747,174.8670563,Neems Place,
88353292,-37.0248221,174.8567462,Laurie Gibbons Track,
88353293,-37.0260984,174.8603618,Finlayson Avenue Reserve,
88353294,-37.0262485,174.8603044,Finlayson Avenue Reserve,
88440586,-36.8551988,174.7612353,Myers Park,
88605600,-36.8455597,174.6532253,Lone Tree Avenue,
88774826,-41.2887829,174.8975297,Bishop Park,
89152083,-36.9538583,174.8894860,Johnstones Road,
89152541,-36.9597083,174.8873231,East Tamaki Reserve,
89152545,-36.9581266,174.8843030,Gubb Place,
89153834,-36.9651210,174.8796657,Crown Crescent,
89155533,-36.9609428,174.8648143,Harwood Avenue,
89156371,-36.9514995,174.8869637,Pearl Baker Reserve,
89159760,-36.9600300,174.8874840,East Tamaki Reserve,
89164483,-36.9678372,174.8737273,Whitley Crescent,
89164484,-36.9787852,174.8817738,Bombay-Otahuhu 110kV,
89164485,-36.9682208,174.8743844,Cooper Crescent,
89167648,-36.9143866,174.8280481,Commissariat Reserve,
89167650,-36.9047705,174.8312095,Lavas Place,
89172580,-36.8998692,174.8332714,Thompson Park,
89179550,-36.9652224,174.8601352,Konini Avenue,
89179955,-36.9753680,174.8891958,Flat Bush Road,
89179956,-36.9749882,174.8892288,Flinders Place,
89545698,-46.3598110,168.3598661,Anderson Park Playground,
89803171,-35.4124831,173.8042614,Penney Crescent,
90092946,-40.2069017,176.1084203,Dannevirke Domain,
90092952,-40.2067401,176.1084434,Dannevirke Domain,
90092953,-40.2068608,176.1085866,Dannevirke Domain,
90265723,-38.1815629,175.2095532,Saint Mary Catholic School,
90267993,-38.1852187,175.2087217,Haerekura Street,
90268004,-38.1850774,175.2087378,Haerekura Street,
90526348,-43.4987611,172.6236972,Rutland Street Park,
91376767,-36.9989939,174.8828155,Puhinui Stream,
91981872,-37.0408425,174.8666219,Joshua Place,
91981903,-37.0366204,174.8702697,Leaver Place,
91985561,-37.0212804,174.9006698,Halver Road,
91985915,-37.0336531,174.8927413,The Dale,
91996295,-36.7671545,174.7237909,Ayton Drive,
91996508,-36.6066482,174.7074862,Flying Fox,
92349459,-37.0677379,174.9339203,Ray Small Park,
92351789,-37.0799596,174.9366425,Tairere Crescent,
92357945,-37.0208345,174.8722813,Rowandale Reserve,
92542026,-37.0668718,174.9446092,Central Park,
92796725,-37.3765010,175.6673746,Railway Street,
93535772,-37.4056471,175.1429284,Te Kauwhata Village Green,
93549216,-37.5738026,175.1486659,Blundell Place,
93549219,-37.5563927,175.1484021,Skate Park,
93549338,-37.5465465,175.1608941,Bailey Street,
93549339,-37.5389328,175.1620316,Brownlie Crescent,
93564684,-37.6632612,175.1546749,Patterson Park,
93566092,-37.6632485,175.1462423,The Point Recreation Reserve,
93566094,-37.6652259,175.1469459,Eyre Street,
93575139,-38.2239332,175.8574091,Elizabeth Park,
93575146,-38.2334356,175.8671506,Glenkill Place,
93576273,-38.2363388,175.8536162,Lake Moananui,
93576274,-38.2022937,175.8665453,Chartwell Drive,
93576276,-38.2365790,175.8535787,Lake Moananui,
93576278,-38.2358711,175.8529725,Lake Moananui,
93829315,-36.8647167,174.7910369,Shore Road Reserve,
95202998,-36.7772380,174.6589213,Christmas Beach,
95204729,-38.6753127,176.0982010,Taupo Top 10 Holiday Park,
95629396,-36.9690755,174.8150553,Gardiner Grove,
95779633,-36.8521143,174.7049003,Coyle Park,
95779634,-36.8520629,174.7050647,Flying Fox,
96327668,-37.1437206,175.5566014,Harvey Crescent,
96510816,-37.0405689,174.9220444,Station Road,
96690155,-36.8643798,174.8671543, Crossfield Reserve,
97187749,-36.8886393,174.8635589,Torino Street,
97187822,-36.9008959,174.8654017,Dunkirk Reserve,
97189746,-36.8984004,174.8844154,Hill Rise,
97189759,-36.8993920,174.8903611,Whiteacres Drive,
97334237,-37.6789093,176.2320292,Matawai Street,
97366851,-36.8858780,174.6988362,Flying Fox,
97940943,-36.9136850,174.7321422,Turner Reserve,
97940954,-36.9137727,174.7323626,Turner Reserve,
97942330,-36.9097908,174.6930727,Olympic Park,
97942340,-36.9100341,174.6928768,Olympic Park,
98401592,-36.6839130,174.7484781,Long Bay Regional Park,
98401593,-36.6839622,174.7487214,Long Bay Regional Park,
98401597,-36.6838537,174.7483557,Flying Fox,
100113988,-36.9018760,174.8322588,Alcock Street,
100957339,-43.5136597,172.6925519,Shortland Street,Surrounded by a wall;
101158064,-36.8622994,174.9042554,,
101158067,-36.8818524,174.9232456,Pickwick Parade,
101459743,-43.5292070,172.6467141,Christchurch East School,
101607701,-37.7819803,176.3072344,Hayward Park,
101619733,-37.7824841,176.3145718,Donovan Park,
101621847,-37.7996592,176.3167089,Fairhaven Park,
101670085,-39.5466983,176.8441249,Rotary Pathway,
101848010,-43.5384285,172.6574663,Nursery Road,
101917795,-36.9168680,174.9310458,Clydesdale Avenue,
101929710,-36.9340041,174.9194614,Kilkenny Drive,
101932726,-36.9170365,174.9243447,Millhouse Park,
101932727,-36.9170785,174.9238160,Millhouse Park,
101933452,-36.9212016,174.9189117,Kilimanjaro Drive,
101937813,-36.9267627,174.9150643,Tarnica Road,
102012630,-43.5780971,172.7604791,Campbell Street,
102139475,-36.9173895,174.8879787,Blyton Lane,
102141771,-36.9286439,174.8542834,Panama Road,
102227248,-43.6015775,172.7100890,Lyttelton Primary School (Hill campus),
102227589,-43.6018487,172.7093914,Lyttelton Primary School (Hill campus),
102527206,-43.5436925,172.6585233,Grafton Street,
102532634,-38.1268890,176.2166877,Ross Road,
102535108,-38.1152068,176.2293777,Tapsell Road,
102535110,-38.1055769,176.2364827,Gemini Place,
102662164,-43.4756511,172.6893390,Bottle Lake Forest Park,
105563710,-36.9156929,174.7847047,Tin Tacks Reserve,
105564124,-36.9178245,174.7811829,Jellicoe Park,With: swing ;
105564133,-36.9177044,174.7811870,Jellicoe Park,With: slide ;
105581725,-39.6162540,176.7735456,Ramsey Crescent,
105695044,-43.5278324,172.6734419,Worcester Street,
106065610,-36.8200033,174.5528082,Harry James Taupaki Reserve,
106731976,-36.8934449,174.7497180,Centennial Park,
107416709,-36.3483596,174.7819051,Mangatawhiri Road,
107680853,-36.9831717,174.9007983,Darnell Crescent,
108202408,-37.0342315,174.9343166,Berwyn Avenue,
108202421,-37.0374720,174.9259177,Old Park Place,
108202447,-37.0383517,174.9284008,Clarice Place,
108576153,-37.0628637,174.9655070,Harrier Place,
110371974,-41.2234289,174.9169630,Godley Street,
110486672,-41.2262641,174.7975203,Kipling Street Play Area,
110677150,-39.6690340,176.8798054,Havelock North Domain,
110892121,-36.9668420,174.8438680,Middlemore Crescent,
110892215,-36.9745772,174.8281305,Aorere Park,
112794872,-36.9681105,174.8004098,David Lange Park,
112971765,-41.2173540,174.8001665,Branscombe Street Play Area,
114113451,-36.9729373,174.8140920,Imrie Road Reserve,
114113467,-36.9729558,174.8140429,Imrie Road Reserve,
114369709,-36.9386044,174.7786367,Kiwi Esplanade,
114369716,-36.9382488,174.7784596,Kiwi Esplanade,
114370994,-36.9516091,174.7896538,Mangere Domain,
114372283,-36.9439612,174.7660266,Ambury Regional Park,
114502898,-36.9157110,174.8003192,Te Papapa School,
114502909,-36.9151309,174.7997626,Mount Smart Road,
114616024,-36.9200444,174.7835514,Onehunga Community House,
114886220,-36.8629441,174.8783835,Roberta Reserve,
114887935,-36.8830115,174.8723284,Point England Park,
115236638,-37.0383093,174.8913415,Wattle Farm Reserve,
115433243,-37.0434867,174.9099997,Brylee Drive,
115491676,-36.9333390,174.7354074,Waikowhai Park,
115491678,-36.9337331,174.7355062,Flying Fox,
115609856,-36.8138637,174.7956135,Achilles Crescent,
115611437,-36.8133584,174.7708243,Lansdowne Street,
115717033,-36.8098856,174.7941709,Montgomery Avenue,
115720590,-36.8039831,174.7815136,Northboro  Reserve,
115817293,-36.9291782,174.7596772,Bluff Terrace,
115968706,-36.7927487,174.7344112,Linley Reserve,
116434891,-36.8518374,174.8178452,Watene Reserve,
116800342,-36.7180960,174.7172070,Candlestick Place,
116815910,-36.8921912,174.6156826,Henderson Valley Park,
116815911,-36.8908211,174.6199544,Murillo Reserve,
116816457,-36.8953665,174.6235527,Corban Park,
116816610,-36.8885384,174.6096370,San Bernadino Reserve,
116816611,-36.8779187,174.6149330,Semillon Avenue,
116923435,-36.6831863,174.4526525,Kaipara Crescent,
116926825,-36.6763465,174.4515275,Porter Crescent,
117623693,-36.8160168,174.7416708,Council Terrace,
117927337,-36.7784376,174.6979804,Manuka Road,
119008658,-36.7560338,174.7292774,Highgrove Lane,
125611986,-41.2528314,174.7613029,Silverstream Road Childrens Park, Huntleigh Park,
127178856,-36.7205327,174.7214136,Ponderosa Drive,
127317981,-36.7239694,174.7375095,Crestview Place,
127515903,-37.4591514,175.9807694,Bowentown Domain,
127515905,-37.4532086,175.9750328,Bowentown Domain,
128178145,-36.7551297,174.7649758,Kennedy Park,
128370224,-36.8400579,174.7551634,Hamer Street,
128385754,-36.6071242,174.7033842,Higham Ferrers Reserve,
128385755,-36.6040197,174.6997004,Rosario Crescent,
128747196,-36.7917315,174.6602322,School Access Footpath,
128763914,-36.6046729,174.8037924,Everard Reserve,
128870605,-36.7428437,174.7383872,Landsberg Way,
129080391,-36.9208966,174.7929775,Buchanan Reserve,
129080392,-36.9209147,174.7927782,Buchanan Reserve,
130624188,-43.2107906,171.7158712,Trelissick Loop,
130624190,-43.2091753,171.7129825,Water Slide,
130744690,-37.5573212,175.9256953,Robinson Street,
130808586,-41.2224250,174.8037556,Johnsonville Childrens Memorial Park,
130818409,-41.2106364,174.8090878,Cranwell Street,
131560953,-37.3757427,175.6827799,Edwards Place,
131568713,-38.7163920,176.0990778,Newberry Place,
131568714,-38.7070811,176.0969620,Fairview Terrace,
131572098,-38.7202460,176.0870772,Waipahihi Hall,
131572100,-38.7157185,176.0913026,Richmond Avenue,
131582744,-38.6613925,175.9272807,Rogers Lane,
131651011,-38.8960676,175.7617810,Ihaia Road,
131726870,-37.7311892,176.1622612,Ila Place,
131726871,-37.7313210,176.1620133,Harrisfield  Drive,
132075350,-43.5691456,172.7505925,Brownlee Reserve,
132604435,-36.9604960,174.9320500,Flying Fox,
132604455,-36.9606280,174.9321413,Mission Heights Reserve,
132795123,-40.8967803,174.9964468,Regent Drive,
132800927,-40.9034682,175.0082333,Linwood dr Recreation Reserve,
132800929,-40.9049899,175.0128654,Atarau Grove,
132906190,-40.9384721,174.9775440,Queen Elizabeth Park,
132911757,-45.0857799,170.9758531,Clyde Street,
133134845,-44.9456374,168.8343820,Reid Crescent,
133137600,-44.9485014,168.8419947,Tipperary  Place,
133142242,-44.6884931,169.1411297,Trevathan Lane,
133268539,-45.2443575,169.3821477,Molyneux Park,
133605624,-41.2088257,174.8049243,Churton Park,
134382283,-36.9836071,174.8746513,South Auckland Seventh-Day Adventist School,
135161532,-37.0455764,174.8628659,Honey Place,
136981146,-38.0819802,176.2115061,Skate Park,With: skateboard ;
136981173,-38.0671758,176.2144646,Chestnut Place,
137069180,-38.1271291,176.2462222,Arataua Street,
137081482,-38.1346872,176.2048005,Spinel Place,
137199260,-38.1247200,176.2372212,Karenga Park,
137935700,-38.0995752,176.7009515,Tarawera Park,
137937224,-38.0869213,176.7049410,Robinson Street,
138502966,-34.9749423,173.5396932,Marchant Road,
138912178,-37.8916539,178.3182789,Waiomatatini Road,
138912184,-37.8915740,178.3184255,Waiomatatini Road,
139070211,-37.2041570,175.8666459,Skate Park,With: skateboard ;
139940235,-41.1930895,174.9336082,Avalon Park,
139940236,-41.1928098,174.9341198,Avalon Park,
139940237,-41.1925415,174.9344523,Avalon Park,
140468053,-39.6260501,176.8172517,Kiwi Street,
141038855,-39.0452485,174.1089247,Fitzroy Road,
141591540,-41.3483767,173.2023872,Marlborough Crescent,
141591606,-41.3481688,173.2020431,Marlborough Crescent,
141591610,-41.3117405,173.2239304,Lusty Place,
141591677,-41.3436303,173.2076302,Highland Drive,
141595157,-41.3471005,173.1667076,Norman Andrews Place,
141595158,-41.3475651,173.1737973,Aratia Place,
141595165,-41.3472369,173.1668490,,
141595896,-41.3450814,173.1653494,Norman Andrews Place,
142356046,-37.7323488,176.1839516,Selwyn Park,
142356051,-37.7369621,176.1859592,Petrel Place,
142586748,-36.8798586,174.7379919,Flying Fox,
142591852,-37.6852287,176.1320032,Seymour Place,
142977874,-37.2994791,175.5472258,Pakatoa Street,
142981861,-37.4482736,175.9673175,Bowentown Domain,
142991901,-37.3962172,175.9373608,Esplanade,
143178746,-38.6572725,178.0227267,Carnarvon Street,
144184047,-37.3933418,174.7152369,Flying Fox,
144184060,-37.3932739,174.7153910,Phillips Reserve,
144187941,-37.7428495,175.1528875,Skate Park,
144202824,-38.3654396,175.7798638,Mangakino Recreation Reserve,
144202825,-38.3654662,175.7798047,Mangakino Recreation Reserve,
144328427,-38.9045784,175.7539610,Idas Park,
145516747,-37.1382905,174.7014543,Clarks Beach Recreation Reserve,
145528204,-37.1397907,174.7001835,Skate Park,
145658278,-39.5176098,176.8547331,Whiting Crescent,
145659941,-39.5186087,176.9070987,Fitzgerald Street,
145659947,-39.5230817,176.8647393,Anderson Park,
145659955,-39.5229754,176.8654413,Anderson Park,
145659960,-39.5233558,176.8653482,Anderson Park,
145659964,-39.5233118,176.8648512,Anderson Park,
145659994,-39.5227766,176.8652637,Anderson Park,
145671771,-39.5194607,176.8973313,Hislop Avenue,
145671772,-39.5051001,176.8722111,Lichfield Crescent,
145817370,-36.4203265,174.7298127,Ercegs Way,
147217767,-38.6995057,178.0568011,Sponge Bay Road,
147217772,-38.6836242,178.0528689,Wainui Road,
147217780,-38.6773636,178.0817939,Moana Road,
148177357,-37.8884857,176.7573456,Division Steet,
148187069,-37.9970414,177.2848517,War Memorial Park,
148292342,-37.9811802,177.0985520,Otau South Reserve,
148299776,-38.0975343,176.7052228,Porritt Drive,
148531888,-36.9077138,174.7643093,Buckley Reserve,
149714671,-40.7562805,175.1516183,Haruatai Park,
149724610,-40.9097187,175.0113430,Paraparaumu Domain,
149724617,-40.9099954,175.0111245,Paraparaumu Domain,
149724620,-40.9153126,175.0106963,Tongariro Street,
149724921,-40.9277789,174.9807195,Matthews Park,
149962037,-40.9804924,174.9565224,Campbell Park,
149968651,-41.1388831,174.8511989,Martin Street,
150173970,-41.1728857,174.9891232,Tawhai School,
150173992,-41.1573026,174.9888505,McManaway Grove,
150177658,-41.1164578,175.0830412,Rosina Street,
150177687,-41.1324837,175.0319528,Trentham Memorial Park,
150177692,-41.1491619,175.0138253,Silverstream Park,
150180065,-41.1067711,175.1048763,Norana Road,
150180088,-41.0940111,175.1316773,Plateau Road,
150180098,-41.1044399,175.1047616,Speargrass Grove,
150325999,-41.2230305,174.8914137,Wilford School,
150326127,-41.2248279,174.8806847,Petone Central School,
150329677,-41.2078492,174.9130956,Eastern Hutt School,
150329680,-41.2150176,174.9127286,Hutt Intermediate School,Access: no;
150329714,-41.2082648,174.9128318,Kings Crescent,
150330754,-41.2251042,174.9226980,Te Whiti Park,
150466387,-42.4672047,171.1870753,Chesterfield Street,
150887266,-45.9047723,170.5503909,Tomahawk Road,
152781558,-43.5362358,172.5765641,Acacia Avenue,Access: private;
152781563,-43.5371118,172.5779978,Middleton Grange School,
153149508,-36.8776419,174.8388942,Ruka Reserve,
153748383,-36.8632651,174.7198853,Western Springs Lakeside Park,
154987558,-36.8868193,174.7766158,Griffin Reserve,
157005105,-43.6017576,172.7234809,Lyttelton Playground,
157625546,-36.8700033,174.7458922,Nixon Park,
160227415,-39.8862570,174.9022870,Mowhanau,
160553044,-37.7341019,175.2751007,Rototuna Park,
160553045,-37.7359187,175.2850695,Wiltshire Drive,
160553046,-37.7266162,175.2879488,Eastridge Terrace,
165091279,-37.6343859,175.1686387,Penny Crescent,
165097576,-37.7531919,175.2831401,Chedworth Park,
165097577,-37.7418286,175.2802815,Azure Place,
166816416,-42.7745053,172.8462122,Culverden DomainCulverden Domain,
167308376,-40.6137143,175.3004168,Kennedy Park,
168818593,-44.6049960,170.1927378,Flying Fox,
168818624,-44.6054062,170.1923519,Flying Fox,
168851008,-42.4038417,173.6811577,Deal Street,
168951608,-43.5567860,172.7331165,Redcliffs Park,
168972522,-39.4305297,175.2818870,Raetihi Holiday Park,
169671113,-36.9008041,174.7312977,War Memorial Park,
172900571,-41.2320867,174.8896797,Waione Street,
173223294,-37.7769282,175.2334343,Dominion Park,
173223311,-37.7746957,175.2338704,Dominion Park,
174620798,-36.9055724,174.7144555,Dickey Reserve,
174997966,-36.7904505,174.6885138,Shepherds Park,
175579751,-36.9233359,174.6455302,Withers Reserve,
176640940,-36.9029740,174.7490522,Arthur S Richards Memorial Park,
180108381,-36.8393903,174.7411207,Point Erin Park,
180202325,-36.8643679,174.7842594,Newmarket Park,
180202327,-36.8643947,174.7840140,Newmarket Park,
180798352,-36.9583522,175.2449512,Howard Road,
181048540,-36.9007359,174.8022823,Konini Reserve,
182518117,-36.9030822,174.6747653,Manuka Park,
182518118,-36.9028499,174.6747832,Manuka Park,
182621710,-36.5989762,174.6680541,Whares Court,
182985419,-37.9064134,175.4663583,Shelley Street,
182985439,-37.9066129,175.4662870,Shelley Street,
184520857,-36.8644824,174.8675433, Crossfield Reserve,
185025716,-36.4335199,174.7436566,Gordon Craig Place,
185737316,-36.8341236,174.6276436,Tatyana Park,
186829338,-36.6001609,174.6749873,Walter Crescent,
189035691,-36.7777236,174.6366004,Malcolm Hahn Reserve,
191171408,-41.1119959,173.6612614,Okiwi Crescent,
191367345,-36.9993038,174.5699471,Huia Domain,
191677772,-36.8916039,174.6415957,Kaikoura  Street,
194234919,-43.5124802,172.6099317,Heaton Street,
196466184,-37.0632413,174.9480365,Massey Park,
198398274,-36.7328776,175.6738560,Matarangi Drive,
198398275,-36.7301155,175.6663122,Kenwood Drive,
198748699,-43.5239829,172.6755829,Linwood North School,
198748702,-43.5240338,172.6761975,Linwood North School,
199776408,-36.7811694,174.7027455,Pemberton Reserve,
201352496,-36.8587590,174.7249856,Larchwood Avenue,
202073583,-36.7810672,174.7258179,Camelot Place,
202073584,-36.7920009,174.7175938,Birkenhead Domain,
203218034,-38.1310247,176.2528847,War Memorial Park,
203221517,-36.2561502,174.5088381,Te Hana Reserve,
203328449,-36.1296956,174.5685520,,
203330097,-36.0934809,174.5871619,Mangawhai Heads Community Centre,
203707308,-35.6873084,174.2953949,Te Paka Crescent,
203833186,-36.9457635,174.8116981,Norana Avenue Reserve,
203977331,-36.8955738,174.7487845,Pollard Park,
204080595,-43.5303316,172.4827551,Islington-Roxburgh 220kV,
204216331,-35.7355177,174.3235220,Morningside School,
204456634,-43.6337748,171.6474724,Main Street,
204906055,-36.7967316,174.7102064,Birkenhead Domain,
204906092,-36.8023857,174.6924699,Taurus Cresent,
205877996,-36.8099909,174.6895750,Island Bay Road,
206039737,-37.0413976,174.8928181,Wattle Farm Reserve,
206503601,-41.2519085,173.0947785,Mapua Reserve,
206990636,-36.7718460,174.7113577,Spinella Reserve,
206990640,-36.7730640,174.7169356,Elliot Reserve,
207974279,-39.6351749,176.8293035,Southampton Street West,
208400257,-43.2869562,172.7176690,Domain Road,
208400259,-43.2999630,172.5933698,Good Street,
208532923,-43.5310402,171.9523741,Hororata Domain,
209164928,-36.8856702,174.8389577,Briody Terrace,
209470848,-39.6429561,176.8279368,Ebbett Park,
209727176,-36.5720693,174.3774581,James McLeod Avenue,
209981850,-37.9111198,176.8765326,Thornton Beach Road,
210193922,-41.5460026,173.9469294,Wither Hills Farm Park,
210193925,-41.5426994,173.9441192,Wither Hills Farm Park,
210193927,-41.5202854,173.9694752,Tremorne Avenue,
210906623,-39.6519140,176.8391153,AKINA Park,
211095473,-43.4647930,171.8958804,Whitecliffs Road,
212327835,-43.9000899,171.7717065,Braebrook Drive,
214817218,-43.5557849,172.4676003,Van Dieman Close,
214981494,-44.6936631,169.1352725,Lake Wanaka,
215207907,-43.3935392,172.6473690,Belcher Street,
215207908,-43.3939350,172.6509444,Canon Stack Place,
215207912,-43.3838084,172.6706354,Kirk Street,
215785370,-36.9667308,174.6408409,Laingholm Reserve,
217846546,-36.9250349,174.7778517,Orpheus Drive Reserve,
217850692,-43.5970121,172.3889734,Bronte Way,
218567147,-45.5442598,169.3144742,Till Street,
219753675,-40.1960051,175.3794290,Gate Pa Avenue,
219900607,-40.8696432,175.0193430,Queens Road,
220076746,-40.3650443,175.5894333,Monrad Park,
220080921,-40.7560539,175.1334694,Temuera Street,
220083061,-40.9109960,175.0036510,Larch Grove,
220085408,-40.8944462,175.0056764,Scaife Drive,
220085410,-40.8944687,175.0060238,Scaife Drive,
220326283,-41.1716199,174.8324823,Pikitanga Close,
220331293,-41.2088693,174.8217698,Mandeville Crescent,
220399428,-41.2267125,174.8152635,Salford Street,
220444707,-41.2233710,174.9174448,Godley Street,
220444719,-41.2014917,174.9363302,Dyer Street School,
220444725,-41.2126307,174.8919108,Hutt Central School,
220444727,-41.2150132,174.9238048,Waterloo School,
220444729,-41.2091095,174.9331893,Epuni School,
220444730,-41.2313286,174.9153904,Gracefield School,
220454194,-41.1954070,174.9440680,Avalon School,
220462041,-41.2038180,174.9462538,Naenae School,
220462045,-41.2018194,174.9530906,Saint Bernadette's School,
220567084,-36.8970668,174.7398719,Foch Avenue,
221131776,-39.4793045,176.9001023,Rotary Pathway,
221131777,-39.4790851,176.9006280,Rotary Pathway,
221321846,-39.9208624,175.0266713,Treadwell Street,
221321847,-39.9146894,175.0452056,Peat Park,
221330773,-39.9406437,174.9906281,Thatcher Street,
221330776,-39.9409664,174.9918574,Thatcher Street,
221330777,-39.9411729,174.9903836,Thatcher Street,
221468767,-41.2681118,174.7562675,Wilton Road,
221468768,-41.2848683,174.7409808,Karori Normal School,
221468782,-41.2757390,174.7571869,Cardinal McKeefry School,
221809397,-41.3152090,174.7984970,Evans Bay Intermediate School,
222118851,-41.3153760,174.7837842,Carrara Park Play Area,
222125031,-41.3145341,174.8191482,Miramar Central School,
222125032,-41.3145874,174.8191614,Miramar Central School,
222131996,-41.3241800,174.8099944,Miro Street,
222132001,-41.3282448,174.8208511,Kahurangi School,
222390807,-37.7200204,176.1431456,Merivale Primary School,
222447995,-41.3354074,174.7758627,Island Bay School,
222447999,-41.3339375,174.7873184,Houghton Valley School,
222617763,-36.9826128,174.8871453,Manukau Sports Bowl,
222749664,-37.7095587,176.3145583,Enterprise Drive,
222749667,-37.7092422,176.3135538,Dickson Road,
222752651,-37.6945092,176.2593748,Tahatai Coast School,
222752655,-37.6943365,176.2598534,Tahatai Coast School,
222865274,-39.0727861,174.0880639,,
222865278,-39.0758692,174.0465853,,
222869575,-39.0628869,174.1031077,Mangorei Road,
222872399,-39.0630505,174.0510907,Calvert Road,
223102283,-41.3074686,173.2335460,Broadgreen School Field,
223102284,-41.2996691,173.2423879,Railway Reserve,
223116095,-41.2808253,173.2701932,Victory Square,
223262230,-38.6625343,178.0127180,Gisborne Intermediate School,
223262242,-38.6613830,177.9952413,Munro Street,
223388725,-36.9112062,174.9363945,Meadowland Reserve,
223389764,-36.8945375,174.9377455,Selwyn Road,
223393707,-38.6825044,178.0749196,Moana Road,
223398240,-39.5094558,176.8950582,Wyatt Avenue,
223398245,-39.5056853,176.8920902,Onekawa School,
223398247,-39.5032713,176.8944414,Alexander Park,
223398249,-39.5091384,176.8928773,Te Kura Kaupapa Maori o Te Ara Hou,
223398251,-39.5105127,176.8803053,Oriel Place,
223400371,-39.5188301,176.9024208,Richmond School,
223400378,-39.5056174,176.9056864,Alexander Park,
223520541,-39.5126164,176.9051130,Te Awa Park,
223520544,-39.5298423,176.8579840,Chester Street,
223529772,-39.5407663,176.8589744,Blythfield Place,
223529780,-39.5365273,176.8469261,Puketapu Road,
223530490,-39.5089330,176.8696381,Tamatea Park,
223665589,-39.4850923,176.8974350,Lever Street,
223843236,-37.6212207,175.5967543,Tatuanui School,
223843263,-37.3728218,175.4204891,Kaihere Primary School,
223857540,-41.2674894,173.2706743,Russell Reserve Playground,
223949897,-37.2138110,174.6759738,Waipipi School,
223953002,-37.8064031,174.8665694,Raglan Area School,
223953012,-37.8079002,174.8586782,Tahuna Avenue,
223958126,-38.7644356,175.1022271,Cemetery Road,
223958134,-38.8804782,175.2597612,Saint Patricks Catholic School,
223958136,-38.6967497,174.6175620,Mokau School,
224057243,-37.2056467,174.7503337,Glenbrook School,
224061579,-37.2428563,174.7745799,Bald Hill Road,
224061581,-37.1293225,175.5324017,Thames zone substation,
224061582,-37.1288887,175.5319956,Moanataiari School,
224063606,-36.9452789,174.8480660,Saint Joseph's School,
224066443,-36.8406620,175.6965657,Mercury Bay Area School,
224066447,-37.2193495,175.5066827,State Highway 25,
224066448,-37.2360198,175.3931578,Canal Road West,
224196266,-36.9848857,175.5008908,Tapu Camp,
224196280,-36.7604050,175.4983795,Tiki Road,
224338132,-35.0251707,173.3317129,,
225234336,-41.3887168,172.8256044,Kowhai Street,
225648322,-43.5327597,172.5629406,Riccarton School,
225648325,-43.5333622,172.5641086,Main South Road,
225677494,-41.2665755,173.0437462,Mahana School,
225683475,-41.4078344,173.0441748,Wakefield School,
225683479,-41.4019681,173.0485213,Lord Auckland Road,
226059376,-43.5104391,172.5825280,Jellie Park,
226694511,-36.9739798,174.8631659,Papatoetoe Central School,
226694512,-36.9499138,174.8741348,Sir Edmund Hillary Collegiate,
226694522,-36.9508352,174.8779649,Sir Edmund Hillary Collegiate,
226694523,-36.9499831,174.8740038,Sir Edmund Hillary Collegiate,
226694524,-36.9554621,174.8779119,Otara Creek Reserve,
226694846,-36.6354971,174.5499694,Waitoki School,
227108463,-36.7880712,174.6651200,Hobsonville Point Road,
229053318,-43.5288093,172.6189618,North Hagley Park,
229053319,-43.5285158,172.6193098,North Hagley Park,
230526731,-43.5153251,172.5737624,Ray Blank Park,
234552616,-43.6426118,172.4901628,Millstream Drive,
234777814,-45.0873693,169.1598610,Domain Road,
234868106,-36.8730767,174.6034741,Sauvignon Avenue,
236384863,-43.1519703,172.7226306,Amberley School,
236394961,-43.6671189,172.1982233,Dunsandel School,
236399469,-43.3079250,172.5954389,Victoria Street,
236404627,-43.4570693,172.6168623,Crombie Green,
236404639,-43.4562560,172.6183457,Englefield Road,
236405247,-43.4594395,172.6168227,Northwood Boulevard,
236530812,-43.2744963,172.5968734,Ashley School,
236531871,-43.3689821,172.4950917,Tram Road,
236532227,-43.3498005,172.3600632,West Eyreton School,
236706175,-43.3907844,172.0259458,Sheffield Contributing School,
236713498,-43.9120494,171.7602143,Hampstead School,
236713504,-43.9236451,171.7187830,Tinwald School,
236713507,-43.9230467,171.7199606,Tinwald School,
236926686,-44.0008012,171.5661152,Ellis Street,
236931133,-44.3789725,171.2308111,Marchwiel Park,
236931157,-44.4093924,171.2494402,Timaru South School,
236940554,-44.3909389,171.2135197,Centennial Park,
236940558,-44.3908337,171.2125946,Centennial Park,
236941808,-44.4863109,171.2116256,King Street,
236942848,-44.4340417,171.1298828,Guscott Road,
236943110,-44.2576762,171.1316454,Halstead Road,
236943111,-44.2592974,171.1297157,Afghan Street,With: bowls ;
236943113,-44.2572409,171.1320177,Halstead Road,
236943114,-44.2616910,171.1317850,St Joseph's School,
236943115,-44.2576656,171.1329433,,
236944047,-44.7286589,171.0385707,Hughes Street,
236945013,-45.1065799,170.9616810,Fenwick School,
236945014,-45.0994908,170.9449896,Blyth Street,
236945369,-45.0774318,170.9831344,Pembroke School,
236977048,-45.8649527,170.4917334,Kaikorai School,
236977053,-45.2663754,170.0538969,Ranfurly - Patearoa Road,
236983788,-45.8995742,170.4101360,,
237052015,-45.8204187,170.6167208,Albertson Avenue,
237064990,-46.1133536,168.9318256,Viking Place,
237065001,-46.1114258,168.9340185,Wayland Street,
237065002,-46.0910213,168.9602901,Wentworth Street,
237202105,-46.4202230,168.3815852,Newfield Park Primary,
237202119,-46.4206158,168.3802523,Totara Street,
237202122,-46.4206049,168.3812581,Newfield Park Primary,
237202125,-46.4063428,168.3837955,Surrey Park,
237202126,-46.4066090,168.3843628,Surrey Park,
237209576,-46.3963585,168.3842226,Waverley Park School,
237209590,-46.3875738,168.3753637,Lamond Street East,
237210517,-46.3701032,168.3488224,Invercargill,
237343268,-46.5995873,168.3340792,Boyne Street,
237347288,-46.4308836,168.2905143,Invercargill Golf Course,
237352601,-46.4453110,168.3723091,Waiau Place,
237353476,-46.4262595,168.3767035,John Street,
237356463,-46.1473197,168.3267374,Essex Street,
237356471,-46.1406578,167.9940146,Otautau Primary School,
237358129,-46.3242747,168.8428066,Wyndham Primary School,
237358130,-46.3246213,168.8435105,Menzies College,
237507013,-46.1896644,168.8696080,Main South Line,
237507020,-46.1929626,168.8624183,Carlyle Street,
237884595,-42.4515495,171.3112943,Omapere Street,
237884596,-42.4398812,171.2109741,Sturge Street,
237884598,-42.4404757,171.3138222,Nile Street,
238172040,-41.3055875,173.2525328,Enner Glyn School,
238172041,-41.3058114,173.2530368,Enner Glyn School,
238290717,-40.6383423,175.2904695,Taitoko School,
238290718,-39.0937472,174.0188235,Omata,
238292552,-40.6179577,175.3062819,Fairfield School,
238294044,-40.6288375,175.2968342,Bath Street,
238297559,-40.9597606,175.6124240,Wairarapa Line,
238299426,-41.0815439,175.4616391,Greytown School,
238431778,-41.2791895,173.2881975,St Joseph's School,
238731736,-45.4160245,167.7106849,Lions Park,
238832978,-43.5139579,172.6294574,Abberley Park,
239695911,-39.5842826,174.3861924,Ohangai Road,
239697566,-39.6420951,174.4960190,Ball Road,
240110576,-41.0797861,175.6539591,Gladstone School,
240251177,-40.4514244,175.8389790,Pahiatua School,
240251182,-40.3631379,175.6651678,Aokautere School,
240252261,-40.3104243,175.4874337,Kopane School,
240484994,-40.1360189,175.6588775,Cheltenham School,
240485000,-40.0411619,175.6428133,Waituna West School,
240747923,-39.8967191,175.9032926,Rangiwahia School,
242018622,-35.8211726,174.0486943,State Highway 14,
243509498,-36.8667482,174.7155473,Premier Avenue,
243509499,-36.8667900,174.7155567,Premier Avenue,
245014821,-41.2800008,173.2442018,Tahunanui Recreation Reserve,
245373237,-36.7854139,174.7316754,Marlborough School,
247808874,-36.8836711,174.6049703,Xena Park,
247993431,-36.8514762,174.5395782,Waitakere War Memorial Park,
249320523,-36.8128799,174.7814069,Bayswater Park,
251433165,-41.3134863,174.7799123,Riddiford Street,
251557198,-41.2929881,174.7681242,Te Aro School,
251559282,-41.2960751,174.7696510,Ohiro Road,
252037101,-41.2951159,174.7690124,Aro Valley Community Centre,
252087853,-41.3133823,174.7824939,WCC Housing Complex,
252106517,-41.3116430,174.7811609,St Anne's,
252106531,-41.3107672,174.7805895,Newtown School,
253005785,-41.3071155,174.7745929,Hutchison Road,
253536908,-37.1958335,174.8922317,McShane Street,
253923579,-37.2151488,174.8942924,Chatswood Village,
253923589,-37.2060786,174.8894234,Lionel Sharpe Place,
253923590,-37.2151209,174.8943334,Chatswood Village,
254092994,-37.4734467,175.2743472,Waiterimu Road,
254294600,-36.8919857,174.6058951,Kensington Gardens,
254754468,-41.2975429,174.7785303,Sages Lane,
255982378,-37.7061502,176.1168303,St Andrews Drive Playground,
256667076,-41.2863441,174.7789783,Frank Kitts playground,
257396740,-36.7797264,174.6373709,Bill Moir Reserve,
257399339,-41.3059047,174.7648798,Playcentre playground,
257399348,-41.3060710,174.7665625,Washington Avenue,
257901281,-36.8483362,174.6127936,Zita Park,
258585205,-41.2847873,174.7699009,The Wellington Botanic Garden,
258589299,-41.2831157,174.7652914,Wellington Botanic Garden Play Area,
258618729,-36.8721374,174.7625253,Tahaki Reserve,
259115262,-36.9177101,174.7809303,Jellicoe Park,With: seesaw ;
259115263,-36.9177800,174.7807470,Jellicoe Park,With: sandpit ;
259115264,-36.9177848,174.7806961,Jellicoe Park,With: climbingframe ;
259123236,-36.9151873,174.7729358,Royal Oak Intermediate School,
259171417,-36.9054751,174.7761037,One Tree Hill Domain,With: seesaw ;
259171418,-36.9055464,174.7759711,One Tree Hill Domain,With: climbingframe ;
259171419,-36.9057601,174.7766827,One Tree Hill Domain,With: zipline ;
259886386,-36.8718932,174.7635538,Tahaki Reserve,
259888085,-43.7290798,172.5867026,Lifeboat,
260062632,-36.8777560,174.8461777,John Shaw Drive,
260223250,-36.8738594,174.7529655,Bellevue Reserve,
260368591,-41.3005210,174.7723755,Hankey Street,
260393366,-41.2831257,174.7730455,Clifton Terrace,
260406334,-42.7199151,170.9676131,Cass Square,
260816750,-41.2874364,174.7621431,Kowhai Road,
260864389,-36.8716178,174.7330660,Bannermann Reserve,
261636357,-41.2987951,174.8006486,Hataitai School,
261673319,-36.8656544,174.5747329,Flying Fox,
261673324,-36.8657374,174.5752258,Swanson Station Park,
261673325,-36.8657450,174.5749391,Swanson Station Park,
261784729,-36.9631353,174.8058266,Mangere Centre Park,
262146615,-36.9224351,174.7845163,Gerrard Beeson Place,
262285520,-36.9249285,174.7773928,Orpheus Drive Reserve,
262491225,-36.9127863,174.7750421,Royal Oak Baptist Church,Access: private;
262962687,-38.6182050,176.1017214,Wairakei School,
262963690,-38.1883556,175.2258284,Rangiatea Road,
262972963,-39.7063087,174.4474117,,
263319918,-39.8659326,175.1140098,State Highway 4,
263390156,-43.5102453,172.5660530,Bullock Reserve,
263401579,-36.9218726,174.7811411,Onehunga Playcentre,Access: private;
263596260,-42.3831183,173.6798089,Beach Road,
263722589,-41.3151427,174.7980222,Saint Patrick's College,
263727907,-41.2915802,174.7861527,Waitangi Park,
263736752,-41.3171317,174.7943187,Kilbirnie Crescent,
263736754,-41.3165208,174.7949903,Kilbirnie Recreation Centre,
264219755,-43.5231996,172.5523702,Toorak Avenue playgound,
264400231,-36.9160932,174.7871428,Jordan Avenue Reserve,
264400232,-36.9159709,174.7871583,Jordan Avenue Reserve,
264533633,-41.3229192,174.7788561,Edinburgh Terrace,
264854165,-36.8528659,174.7510007,Freemans Bay Community Centre,
264982510,-36.9050628,174.7432095,Dominion Road School,
264982511,-36.9050396,174.7430728,Dominion Road School,
264983529,-36.9042430,174.7427768,Dominion Road School,
264983530,-36.9039706,174.7427370,Dominion Road School,
264998459,-36.9157909,174.7875244,Jordan Avenue Reserve,
265015359,-36.8696733,174.7743929,Newmarket Primary School,
265116205,-41.3115884,174.7580340,Mitchell Street,
265121725,-36.9206440,174.7927047,Buchanan Reserve,
265126606,-41.3237232,174.7630471,Quebec Street,
265141156,-41.3055299,174.7654098,Brooklyn School,
265141259,-41.3059088,174.7649507,Playcentre playground,
265386325,-41.2873787,174.7398656,Ben Burn Park,
265509394,-36.8469139,174.8295819,Mission Bay Playground,
265530568,-41.3269308,174.8379883,Seatoun School,
265530574,-41.3222960,174.8345911,Churchill Park,
265530580,-41.3211082,174.8312854,Te Kura Kaupapa Maori o nga Mokopuna,
265532175,-41.3174392,174.8208755,Athens Street,
265881908,-41.3231810,174.7930303,Lyall Bay School,
265881954,-41.3291291,174.7957268,Lyall Bay Parade,
265883839,-41.3360769,174.8136864,Kekerenga Street,
266509375,-36.9060910,174.7754842,One Tree Hill Domain,
266509376,-36.9060360,174.7756641,One Tree Hill Domain,
266509377,-36.9061801,174.7754191,One Tree Hill Domain,
266509378,-36.9061563,174.7755961,One Tree Hill Domain,
266509379,-36.9061893,174.7757220,One Tree Hill Domain,
269071291,-41.3330376,174.8169250,Raukawa Street,
269079187,-41.3176359,174.8171501,Chelsea Street,
269475042,-41.2618799,174.7675968,Wadestown School,
269506052,-41.2761625,174.7758952,Sacred Heart Cathedral School,
270741752,-36.8821608,174.7612930,Essex Reserve,
270748339,-41.3015250,174.7821602,Saint Mark's Church School,
270748341,-41.3011193,174.7821624,Saint Mark's Church School,
270767606,-36.9038663,174.7218641,Maioro Street,
271014680,-36.9109009,174.7992059,Fergusson Domain,
273181494,-41.2756634,174.7564418,Cardinal McKeefry School,
274935982,-41.3159220,174.7650555,Ridgeway School,
275146924,-41.3034906,174.8244294,Miramar North School,
275186676,-39.5455444,176.8533298,Flemington Place,
275201367,-40.6185588,175.2703785,Levin Intermediate School,
276668586,-41.3109592,174.8152655,Booth Street,
276725088,-41.3083359,174.7635155,St Bernard's School,
276928313,-37.7255366,176.1907436,Welcome Bay Road,
276976590,-37.6748781,176.0765941,Tepuna Road,
277230083,-37.8383800,176.4768027,Pongakawa School,
277237851,-37.8458381,176.5419927,Old Coach Road,
277237854,-37.8459353,176.5418259,Old Coach Road,
277786498,-41.3104302,174.7611499,Tiketike Way,
278741868,-40.6142549,175.2869321,The Bars,
278741870,-40.6143137,175.2867498,The Bars,
278741871,-40.6139254,175.2866990,Sandpit,
278741873,-40.6141637,175.2864337,Sandpit,
278767883,-40.6240541,175.2803560,Cumberland Court,
279674444,-41.3242731,174.8302012,Saint Anthony's School,
279674445,-41.3243096,174.8298552,Saint Anthony's School,
280227199,-41.3035713,174.7956806,Hataitai Road,
280409183,-41.3299105,174.8188221,Walden Street,
280412697,-41.3302289,174.8172953,Raukawa Street,
280413402,-41.2187316,175.4524477,Waihenga Cemetery,
280671720,-36.8537458,174.7397337,Vermont Reserve,With: swing ;
280711527,-41.1808444,174.9332458,Kelson School,
281266301,-36.8509965,175.4784826,Goldfields Road,
281502825,-38.0364519,176.4876449,Tamatea Street,
281502829,-38.0626258,176.6040889,Matahi Lagoon,
281514202,-37.9717584,176.8248615,Tui Adventure Playground,
281793346,-37.1403600,175.0363517,Steel Road,
281797005,-37.1129571,174.6155379,Awhitu District School,
282591520,-37.2380653,175.0117091,Mark Ball Drive,
282658571,-41.3245581,174.7928682,Queens Dr to Freyberg St Walkway,
282675068,-40.6260952,175.2911896,Jubilee Park,
282675069,-40.6259936,175.2915237,Jubilee Park,
282675071,-40.6252924,175.3036188,Vincent Drive Reserve,
282675073,-40.6365215,175.2868283,Morgan Crescent Reserve,
283042295,-38.6810546,176.0497964,Jarden Mile,
284554086,-36.8582846,174.7374217,Grey Lynn Park,
284975060,-35.0713428,173.7131776,Marae,
285200316,-35.6750957,174.3472178,Glenbervie School,
286057896,-35.8751990,174.4582000,Roger Hall Memorial Park,
286063359,-35.9405210,173.8677086,Northern Wairoa War Memorial Hall,
286389425,-35.6312192,174.5018223,Kopipi Crescent,
286393459,-43.6084344,172.3834242,Cameron Crescent,
286529770,-37.2132394,175.1229943,McKenzie Road,
287648649,-41.3283117,174.8185284,Scots College,
287683362,-38.3447563,175.2568974,Ngapeke Road,
288147324,-36.8705071,174.8356190,Flying Fox,
288147327,-36.8703281,174.8355158,Rutherford Reserve,
288147328,-36.8702198,174.8352034,Rutherford Reserve,
288284624,-38.6153947,175.6985328,,
288843720,-38.0024839,177.2864636,Saint Josephs Catholic School,
288855919,-41.2864968,174.7256496,Karori Park,
288867947,-41.2890740,174.8001896,The Crescent,
288867952,-41.2868592,174.8033040,Roseneath School,
289122414,-36.8712976,174.6424915,Neville Power Reserve,
289666457,-37.7762283,175.2885995,Jubilee Park,
289666467,-37.7763830,175.2889213,Jubilee Park,
289666470,-37.7760968,175.2890072,Jubilee Park,
289830966,-41.3082639,174.7757946,Te Whaea: National Dance and Drama Centre,
289963420,-41.3430913,174.7595719,Robertson Street,
290627875,-41.3017813,174.7817224,Wellington College field,
290641128,-45.9228647,169.0132688,Foyle Street,
290777955,-41.3209599,174.7727642,Stanley Street,
290779268,-41.3244607,174.7754856,Adelaide Road,
291008421,-41.3433499,174.7702229,Shortland Park,
291684951,-45.6681489,168.2337593,Holmes Street,
291699014,-45.7411964,168.4484327,Folia Street,
291699018,-45.7414335,168.4489146,Folia Street,
291706239,-45.5051300,170.1186829,Conway Street,
291739533,-45.0911140,169.6029124,Deaker Street,
291739537,-45.0996682,169.5956550,Alton Street,
292242004,-41.2905578,174.7905270,Waterfront Shared Path -- Oriental Parade,
292248770,-41.3357994,174.7751157,Island Bay School,
292248771,-41.3349816,174.7756024,Thames Street,
292249914,-41.3343622,174.7756124,Melbourne Road,
292511327,-36.8545810,174.7872762,Parnell School,
292982260,-41.2935411,174.7679638,Te Aro School,
292982261,-41.2928058,174.7685945,Te Aro School,
292984412,-40.9184907,174.9795321,Raumati Marine Gardens,
293136962,-41.2966902,174.7857877,Elizabeth Street play area,
293249778,-37.8093621,175.2741450,Tawa Park,
293601236,-36.8294058,174.6305404,Moire Park,
293807804,-39.5807800,176.9124413,Farndon Road,
294605659,-36.8495097,174.7852946,Gladstone Domain,
294807403,-39.5814427,176.7590539,Taihape Road,
295020858,-39.4998392,176.8934335,Marewa Park,
295598351,-39.5224007,176.8660424,Anderson Park,
295950574,-38.3175758,176.4938656,Ash Pit Road,
296425559,-39.6139390,176.7689230,Tarbet Street,
296427247,-39.6265900,176.7801500,Ron Giorgi Park,
296655529,-39.0327411,177.4195336,Wairoa River,
296991054,-36.8836261,174.7643233,Nicholson Park,
297118876,-36.8903791,174.7428845,Good Shepherd School,
297325769,-41.2121344,174.9020154,Lower Hutt War Memorial Library,
297325776,-41.2111755,174.9064663,Saints Peter and Paul School,
297325777,-41.2116456,174.9064533,Saints Peter and Paul School,
297705142,-37.9034045,175.4798888,Leamington Domain,
297705148,-37.9035097,175.4798632,Leamington Domain,
297717871,-37.8752218,175.4780218,Carnation Court,
298219597,-36.9181386,174.6751487,Lawson Park,
298768006,-38.6710599,178.0184718,Waikanae Beach Holiday Park,
299001942,-38.6718607,178.0530730,Dalton Street,
299453047,-38.6393129,178.0013923,Ruru Avenue,
299975204,-38.1885129,175.2016342,Otorohanga South School,
300460653,-42.5219230,172.8315701,Dog Stream Reserve,
301636912,-37.8002841,174.8642918,Skateboard Bowl,
302710985,-46.1312482,169.9713054,Leman Street,
302729577,-39.7631565,174.6358800,State Highway 3,
302826294,-36.8977266,174.8038247,Ellerslie School,
302852829,-36.8990242,174.8101628,Leicester Hall,
303014651,-39.4563372,173.8573367,Beach Road,
303014656,-39.4499878,173.8596736,Saint Josephs School,
303553222,-36.8727973,174.7844078,Saint Michael's School,
303596349,-39.1462483,174.1452815,Egmont Road,
303740839,-39.4278716,174.1530565,Dawson Street,
303929368,-39.9426617,176.5870623,Islington Drive,
303929378,-39.9438692,176.5908979,,
303929416,-39.9985960,176.5548368,A'Deane Park,
303929426,-39.9427329,176.5874222,Islington Drive,
303932066,-40.0253479,176.3469156,Charles Street,
304040765,-36.8869026,174.7790928,Elizabeth Knox Home and Hospital,
304063202,-40.0062695,176.5470030,Mccarthy Terrace,
304163600,-36.8859727,174.7681633,Melville Park,
304342172,-37.1018086,174.9517496,Drury Domain,
304342173,-37.0973630,174.9498908,York Street,
304467429,-36.9126980,174.8407677,Sylvia park,
304594305,-36.9096081,174.8261632,Bailey Road School,
304647790,-40.0707215,176.2166091,Horsa Street,
304745929,-36.1331435,174.1797425,Matakohe East Road,
305355009,-36.8429008,174.6084932,Raynella Reserve,
305364020,-36.8516472,174.6080854,Don Buck School,
305625053,-36.9075400,174.8014214,Oranga School,
305625055,-36.9072247,174.8006162,Oranga School,
305658621,-41.2476685,174.7733148,Johnsonville Line,
306350838,-38.4584093,176.7040140,Murupara School,
306597080,-36.9432790,174.7748927,Waterlea Park,
306610806,-36.9472976,174.7716599,Ambury Regional Park,
306610807,-36.9471977,174.7718543,Ambury Regional Park,
306610808,-36.9446101,174.7700275,Ambury Regional Park,
306610809,-36.9474012,174.7717104,Ambury Regional Park,
306611267,-36.9430465,174.7723193,Ambury Regional Park,
306611269,-36.9429935,174.7725356,Ambury Regional Park,
307091995,-37.3880927,175.8493213,Morgan Park,
307241191,-36.9422197,174.7861895,Swanson Park,
307263246,-36.8839043,174.7372045,Warren Freer Park,
307364264,-36.8882792,174.7462269,Wiremu Street Bible Chapel,Access: private;
307555502,-38.1082896,176.8157306,Te Mahoe School,
307555504,-38.1107805,176.8157244,Te Mahoe Village Road,
307645170,-36.8928789,174.7367425,Sandringham Reserve,
307666583,-37.1459740,175.1264046,Paparimu Road,
307693370,-41.1150000,175.3291388,Saint Teresa's School,
307693372,-41.1189230,175.3273897,Revans Street,
307695264,-41.1166483,175.3283915,Childrens playground,
307982385,-36.9032241,174.7457933,Fearon Park,
308126294,-36.9051989,174.7519180,Robinson Reserve,
308674108,-36.9582130,174.8292808,Driver Road,
308676157,-36.9617330,174.8164742,Southern Cross Campus,
308864396,-40.8460820,172.8086655,Golden Bay High School,
309033290,-41.3353966,173.1939450,Arbor-Lea Avenue,
309033299,-41.3167393,173.2315685,Nikau Street,
309036299,-41.3091850,173.2397240,Ngaio Street playground,
309038818,-41.3134779,173.2158382,Monaco View,
309038820,-41.3105081,173.2495907,Panorama Drive,
310004344,-35.1623452,173.1556121,Ahipara Beach Domain,
310173462,-40.3497532,175.6040873,Central Normal School,
310173463,-40.3494870,175.6039804,Central Normal School,
310175091,-36.8959696,174.7136136,Murray Halberg Park,
310175092,-36.8963116,174.7158617,Alan Wood Park,
310175093,-36.8951493,174.7157587,Alan Wood Park,
311353122,-36.9252765,174.7605466,Pallister Reserve,
311459910,-36.9264709,174.7313757,Stranolar Reserve,
312513442,-41.1519878,175.0114464,Dunns Park Playground,
312704875,-36.8752166,174.8100283,Little Rangitoto Reserve,
315120374,-36.8694718,174.8708623,West Tamaki Reserve,
315434096,-36.1548289,175.3939905,Aotea Road,
316457547,-40.1495755,176.4439663,Ngahape Road,
316466899,-39.8146871,176.9934530,,
316724484,-37.2000907,175.2056145,,
316727841,-37.7397340,175.5829362,Chepmell Road,
316729992,-37.7727118,175.4547693,Tauwhare School,
316730398,-37.8425460,175.4711683,Fencourt Road,
316766685,-37.8029264,175.3938877,Matangi School,
316856158,-37.8432991,175.4715828,,
166816416,-42.7745053,172.8462122,Culverden DomainCulverden Domain,
