id,lat,lon,name,description
13887146,-33.8704237,151.2295996,Bear Park,
17026871,-31.4716697,152.9255287,,
17077591,-31.4540531,152.9252173,Calwalla Reserve walkway,
18323882,-33.8904446,151.2341690,Centennial Park,
18325402,-33.9028747,151.2284041,Centennial Park,
18469051,-33.9644849,151.2513081,Cromwell Park,
18531243,-33.9241546,151.2577692,Stan Windon Memorial Playground,
18845354,-33.9129392,151.2658037,Clovelly Beach,
19170358,-33.9035357,151.2666852,Bronte Park,
20954700,-33.8992719,151.2691520,Tamarama Park,
20958943,-33.8568669,151.2016882,Merriman Street,
20971721,-33.7157258,150.3293154,Broome Park,
20973810,-33.7259907,150.3040431,Katoomba Falls Reserve,
20976369,-33.7191037,150.3221517,Chelmsford Drive,
20976634,-33.7246157,150.3323342,Prince Henry Cliff Walk,
20979658,-33.8936686,151.2259824,Centennial Park,
20979768,-33.8624529,151.2791246,Kimberley Reserve,
21277792,-27.1821575,151.2610764,Thomas Jack Park,
21312764,-27.5706712,151.9765373,McCafferty Park,
21321475,-27.5809209,151.9868875,Heller Street Park,
25940287,-33.1203045,151.5359883,Irene Auston Reserve,
32173690,-34.7751679,150.6991968,Apex Park,
32281031,-33.6635971,151.1229795,Hunt Reserve,
32281041,-33.6595681,151.1238495,Foxglove Oval,
32281105,-33.6573286,151.1158317,Oxley Reserve,
34506164,-33.9979028,151.0702413,Como Pleasure Grounds,
52616521,-35.3638661,149.2275577,Lambert Park,
53907789,-34.0165068,151.0822015,Freya Street,
60565837,-33.2931138,150.9715003,Wollombi Road,
62250683,-27.4442896,153.0024284,Balun Park,
62285150,-27.4428728,153.0018276,Tennis Avenue,
70566869,-33.8216666,151.2301344,Fifth Avenue,
82801089,-27.4536543,153.0114402,Marshall Park,
82801090,-27.4536997,153.0128525,McCaskie Park,
84486011,-28.3126996,153.5711458,,
96312144,-27.4411027,153.0088310,Spencer Park,
97775019,-27.4362940,153.0008338,Quandong Park,
103969724,-27.4653420,153.0350804,Captain Burke Park,
103973164,-27.4707175,153.0343608,C T White Park,
125122553,-27.4443025,153.0243430,Rasey Park,
130078627,-27.4685908,153.0525781,New Farm Park,
132082355,-27.4482089,152.9311660,Enoggera Creek,
149719468,-37.8410704,145.2228290,Juniper Road,
149748494,-37.8419854,145.2283050,Inchcape Avenue,
149751335,-37.8413889,145.2264167,Bellbird Drive,
153921519,-27.4664223,152.9989566,Gregory Park,
155636919,-37.8118797,145.2790659,Eastfield Park,
165738309,-27.4396583,152.9998745,Ferneydell Street,
165738605,-27.4446476,152.9907420,Ashgrove Memorial Park,
165741444,-27.4369084,152.9912142,Frank Waters Park,
179439646,-27.4321252,153.0032987,Newmarket State School,
179439665,-27.4312415,153.0023975,Newmarket State School,
186656255,-27.5261901,153.0701603,Lawn Street,
186658000,-27.5263651,153.0697483,Logan Road,
190170259,-33.8468480,151.0811359,Powells Creek,
191054348,-37.8533942,144.9868970,Gladstone Gardens,
203544378,-33.7060281,151.1053936,Willow Park,
206213236,-33.6664298,151.3031959,Winnereremy Bay Reserve,
226085612,-27.4427970,153.0115005,Picot Street Park,
237393523,-27.4352129,153.0196563,Wilston Place,
240377867,-27.4568761,152.9764169,Bowman Park,
243435536,-33.7632326,150.6186390,Whitton Park,
243435569,-33.7662179,150.6226006,Glenbrook Park,
243474699,-33.7525332,150.6653237,Great Western Highway,
243653097,-33.6618421,151.1584854,Cowan Water,
243745638,-37.8706662,145.1801818,Camelot Drive,
243810274,-35.3604154,149.2073816,Hope Marland Park,
244314450,-33.7303273,150.6295627,Reservoir Park,
246077000,-27.4499497,152.9764558,Jaloon Street Parklands,
246934208,-37.8798924,145.1876634,Napier Park Playground,
246934476,-37.8809966,145.1824878,Wellesley Road,
246973249,-27.4417488,153.1762585,Moreton Bay Cycle Way,
246973527,-27.4465247,153.1848416,Bandstand Park,
247010036,-33.7566784,150.6082390,Strathdon Crescent,
247025991,-33.7257607,150.6375161,Harley Park,
247038110,-33.7435660,150.6178701,Thomas Park,
247181668,-33.8202147,151.0607675,George Kendall Riverside Park,
247183837,-33.8070060,151.0303841,Reserve Street,
247330273,-33.7477749,150.6764127,River Road,
247706281,-37.8840600,145.1048681,Rosemary Street,
247985030,-35.4429861,148.9296826,Nature Discovery Playground,
248125155,-37.8728641,145.1065349,Glen Waverley Line,
248265137,-27.4473422,152.9725378,The Woods Memorial Playground,
248266454,-27.4439526,152.9743660,Saint Johns Avenue,
248844234,-37.8378649,145.1058769,Wattle Park,
249037260,-34.1903217,150.9804752,Charles Harper Park,
249252002,-37.8357855,145.1012038,Elwood Street,
249534201,-34.5682599,150.7958375,Ti Tree Avenue,
250534228,-35.1941966,149.1126269,Bimberi Crescent,
250534568,-35.1899441,149.1173038,Sonder Close,
250652129,-35.1922622,149.1256782,Lofty Close,
250657152,-35.1961881,149.1261189,Weddin Circuit,
251267608,-34.0461726,151.0509744,Tenth Avenue,
251296504,-37.8762291,145.1088263,Jordan Reserve,
251851892,-35.1816870,149.0884430,Fitzsimmons Street,
253023683,-27.4948799,152.9635034,Carinya Street Park,
253116062,-33.8443769,151.2182122,Kesterton Park,
254856604,-27.4926417,152.9498950,Nankoor Street,
255631191,-33.6431748,151.0440510,Fagan Park,
255632013,-33.6375342,151.0466214,Fagan Park,
256542311,-37.8506307,145.2420812,Greenock Crescent Reserve,
257315142,-33.7767069,150.8386485,Nicolaidis Crescent,
257893239,-33.7737370,150.8447474,Rooty Hill Road South,
258024134,-37.9063717,145.1122356,Garnett Street,
260719896,-37.8537422,145.1937273,Mitchelton Court,
260913441,-37.8680909,145.2298777,Old Orchard Reserve,
261401299,-37.9125175,145.0935218,W.A. Scammell Reserve,
264045758,-27.5105317,152.9759200,Gordon Thomson Park,
264048089,-27.5233810,152.9928801,Simpsons Playground,
264248971,-27.5218957,152.9880721,Graceville Riverside Parklands,
264900626,-27.5084464,152.9876527,Mansfield Park,
265959881,-37.8900018,145.2921633,Wally Tew Reserve,
266155213,-33.8950483,151.2040435,Phillip Street,
266156197,-33.8917496,151.2113031,Graffiti wall,
266497374,-37.8814102,145.2803493,Gabrielle Court,
266739988,-37.8943921,145.3013434,Kings Park,
267816377,-33.8190485,151.0546596,Hilder Road,
267843701,-33.8311784,151.2374420,Memory Park,
267863971,-33.7919517,151.0394932,Elizabeth Macarthur Park,
268002104,-33.7565642,151.1572672,Rosedale Road,
268795746,-27.4573213,152.9886372,Rockbourne Terrace,
273974431,-33.7189123,150.5753163,Batman Park,
274481210,-27.4436662,152.9872625,Amarina Avenue,
275607171,-33.6950883,150.5407713,Corridor of Oaks Park,
275607355,-33.6964547,150.5511940,Great Western Highway,
275740932,-37.8892346,145.0738585,Outer Circle Rail Trail,
276845239,-27.4278575,153.0038064,Sedgley Park,
277866764,-33.8392705,151.2371536,Sirius Park,
278082247,-37.7333344,144.9264285,Tate Street,
278171598,-27.4271059,152.9930080,Willmington Park,
278175156,-37.7389737,144.9525290,Soudan Reserve,
278619145,-37.7316476,144.9258149,Esslemont Reserve,
278704721,-27.4619711,153.0102908,Neil Macrossan Park,
279229247,-27.4407138,153.0120036,Spencer Park,
279229396,-27.4412175,153.0196570,Finsbury Park,
279229507,-27.4366394,153.0137775,MC Cook Park,
279437379,-27.3867037,153.0091008,Melaleuca Green,
279442104,-27.3753991,153.0046575,Stringybark Park,
280003842,-27.5859598,151.9685186,Emmerson Park,
280003845,-27.5841946,151.9672297,Emmerson Park,
281186140,-37.7286247,144.9263391,Bert Payne Reserve,
281347569,-37.7260805,144.9323307,Gavin Reserve,
281351030,-37.7229363,144.9395858,Cole Reserve,
281858008,-32.7845554,152.0786942,Fitzroy Street,
281858021,-32.7782347,152.0869400,Morna Point Road,
288142965,-27.4247995,153.0175134,Lanham Park,
289822770,-37.9017988,145.0933979,Burlington Street,
291685672,-34.0849720,151.1510094,Bundeena Drive,
291725007,-37.7397433,144.9646400,Wilson Street,
292217600,-37.7711474,144.9733075,Methven Park,
292253223,-27.5295200,153.0339100,Beverley Hill Street,
293576449,-37.7750879,144.9387771,Gibson Street,
294080478,-37.0506456,144.2171147,Castlemaine Botanic Garden,
294105239,-34.4778661,150.7954295,,
294406513,-27.4206200,153.0124600,Kedron Brook Greenway,
294541985,-37.7984065,145.0103958,Yarra Bend Park,
295263425,-37.7356401,144.8995803,Kerferd Street,
297651526,-37.7296997,144.9486469,Martyn Reserve,
297893887,-27.4545726,153.0248000,Victoria Park,
298557966,-33.8991037,151.1463618,Gould Avenue,
298607558,-37.8231051,145.1565962,Morton Park,
298957715,-37.8572667,145.2337805,Nottingham Square,
298995596,-35.2221915,149.0192625,Kippax Public Library,
299003843,-35.2250309,149.0175885,Kellermann Close,
299023372,-37.8048275,145.0006231,Andrews Reserve Playground,
301363535,-37.7251594,144.9571004,Hosken Reserve,
302229764,-37.7687747,145.0041036,All Nations Park,
302263469,-27.1324000,152.9819512,Explorer Park,
302797152,-37.7101242,144.9208200,G.E. Clarke Reserve,
302798666,-37.7156658,144.9200907,Vanderloo Reserve,
303466695,-37.8333142,144.9517773,Sol Green Reserve,
304516286,-33.8789134,151.1464001,Richard Murden Reserve,
304521334,-37.7184235,144.9462249,Hallam Reserve,
305383575,-27.3103457,153.0213202,Bald Hills West Bracken Ridge Scout Hall,
305864979,-27.4662900,152.9893300,Norman Buchan Park,
305865065,-27.4654800,152.9898600,Norman Buchan Park,
305865250,-27.4671893,152.9827345,Rainworth Park,
306156937,-27.4181100,152.9907400,Korea Park,
306156946,-27.4164100,152.9869600,Enoggera Memorial Park,
306156949,-27.4134700,152.9873800,Enoggera Memorial Park,
306329122,-37.9167014,145.3268496,Upwey South Recreation Reserve,
306915510,-37.7236365,144.9200517,Oak Park Reserve,
307012463,-27.4773475,153.0225397,South Bank Parklands,
307561750,-27.4178900,152.9982300,Sicklefield Road,
307561754,-27.4148400,152.9989000,Kedron Brook Bikeway,
307562245,-27.4125900,153.0067000,Shand Street,
308435378,-37.8343799,144.9659008,Eastern South Reserve,
308472046,-37.7136959,145.1328580,Tahlee Place,
308679503,-37.7601906,144.9959230,Pearl Reserve,
309836838,-37.9274214,145.1725272,Mulgrave Park Preschool,
309846270,-37.9357268,145.2054107,Portland Street,
309846345,-37.9369620,145.2018791,Portland Street,
309978038,-37.8044103,145.0480953,Victoria Park,
310187696,-37.7855490,145.3174581,Brice Avenue,
310384851,-27.4117500,153.0149100,Kedron Brook Greenway,
310384886,-27.4127900,153.0190400,Hickey Park,
310384902,-27.4146800,153.0214100,Hickey Park,
310384943,-27.4131400,153.0136300,Kedron Brook Greenway,
311218691,-37.7315422,144.9996062,L.W. Williams Reserve,
311230988,-37.7224519,144.9965634,Crispe Park,
311248502,-27.4516400,152.9535200,Paten Park,
311462367,-37.7874465,145.2877183,Silcock Reserve,
311673328,-37.7548370,145.0064422,Penders Park,
311708417,-27.4960736,153.0244298,Butterfly Magic Playspace,
311708489,-27.5047900,153.0234900,Turley Street,
311886609,-37.7102948,145.1044742,Deblonay Crescent,
311887708,-37.9169629,145.3346072,Birds Land Reserve,
311887756,-37.9039117,145.3304131,Main Street,
312058864,-37.8792905,145.0813467,Ivanhoe Gr,
313250237,-37.8124310,145.2367180,Ringwood Lake Park,
313428992,-37.7025131,144.9123852,Anselm Grove Park,
313430880,-37.7099800,144.9085314,Penola Catholic College,
313865916,-27.4739100,153.0308100,Steamers in the Gardens,
314080671,-27.4182836,152.9391218,Bundara Park,
314080684,-27.4164899,152.9427408,Kings Park,
315043652,-27.4517100,153.0580600,Bulimba Memorial Park,
315043693,-27.4560794,153.0555920,Dock Lane,
315453470,-27.4242100,153.0185000,Lanham Park,
315676360,-37.8468914,145.1442449,Eley Road Reserve,
315676368,-37.8455430,145.1440417,Eley Road Reserve,
315991439,-37.8482897,145.0494734,Burke Road South Reserve,
315992591,-27.4224122,152.9783348,Bliss Street,
315992621,-27.4220300,152.9740100,John French Memorial Park,
316736426,-27.5076100,153.0046200,Jacaranda Park,
316736430,-27.5090654,153.0058798,Meiers Road Reserve (road reserve),
316736465,-27.5117468,153.0150036,Fehlberg Park,
317112768,-27.4446200,152.9541100,Walton Bridge Reserve,
317112824,-27.4451200,152.9550400,Walton Bridge Reserve,
317112828,-27.4442800,152.9539900,Walton Bridge Reserve,
317485549,-37.8110937,145.0915175,Beckett Park,
317503436,-37.8821084,145.0822853,Percy Park,
317506111,-37.8700625,145.0748609,Watson Park,
317709324,-27.5395456,153.0238277,Moorooka Australian Football Club,
318127985,-27.4215800,153.0273600,Kedron Brook Greenway,
318293012,-37.7763754,144.9651762,Barkly Street Park,
318624945,-27.4585890,153.0463289,Teneriffe Park,
320383447,-37.8555089,144.8751983,R. J. Long Reserve,
320411445,-27.4873600,152.9968000,Orleigh Park,
320411483,-27.4892000,152.9970900,Orleigh Park,
320490800,-37.8183421,144.8685812,Angliss Reserve,
320900117,-27.3650300,153.0851500,Showground Park,
320900141,-27.3648600,153.0913200,Conlan Street,
320900156,-27.3670400,153.0844900,Dent Park,
322530004,-27.4103423,153.0069845,Roy Harvey Park,
323036390,-37.7701339,144.9772984,Fleming Park,
323039983,-37.7669586,144.9720971,Anderson Park,
323857318,-37.7591881,145.0011878,McDonald Reserve,
324212558,-37.8255569,145.4047119,,
324851856,-27.3876908,152.9697797,Ironbark Circuit,
325001644,-37.9830955,145.2581091,John Edgcombe Way,
325267420,-37.6574146,144.5966929,Glencoe Street,
328739439,-27.5349727,152.9322227,Pamaroo Crescent,
330195622,-27.5252365,153.0341434,Mary Chayter Park,
330379005,-37.2929119,142.9364235,Centenary Oval,
330406471,-35.3435673,149.1038464,Garran Neighbourhood Oval,
330455255,-27.5252059,153.0341568,Mary Chayter Park,
330821066,-27.4388269,153.0694987,Hamilton Recreational Reserve,
330821068,-27.4386088,153.0697471,Hamilton Recreational Reserve,
331369839,-27.4477000,152.9481400,Tandara Street,
331442715,-27.5232151,153.0289560,Mackenzie Place,
331442719,-27.5284194,153.0257267,Moolabin Park,
331502879,-27.3715903,153.0884513,Laura Place,
331964107,-27.4531962,152.9380630,Georgia Place,
331964114,-27.4500159,152.9353501,Allamanda Street,
332197629,-37.2752491,142.9453402,Grevillia Court,
332340126,-26.8548068,152.9578734,Mill Park,
332341801,-26.7749681,153.0035334,Ewen Maddock,
333664080,-27.4271400,153.0327100,Clark Park,
334511151,-27.4622313,153.0188638,Roma Street Parklands,
335792804,-26.8581388,152.9355000,Settlement Park,
335889078,-37.8514179,145.1460309,Highview Grove,
336219460,-27.4052100,153.0405100,Mercer Park,
336219490,-27.4015564,153.0391826,Mercer Park,
336903458,-34.3588862,150.9054671,Russell Vale Public School,
337305735,-27.4645300,153.0636300,Hawthorne Park,
338636538,-27.5400906,153.0171390,Veterans Park,
338854848,-37.8773720,145.0684534,Sylvester Crescent,
339306800,-37.7449713,145.3438718,Gateway Reserve,
339340317,-27.4389800,152.9378300,Solferino Place,
339940392,-27.4171805,153.0008791,Frog Creek,
339940500,-27.4061835,153.0030707,Boles Street,
340148299,-27.3958900,153.0015100,Stafford Rotary Park,
340632189,-27.4382893,152.9405046,Michalea Crescent,
341325131,-33.9011215,151.1377665,Johnston Park,
341325332,-33.8995471,151.1398694,Hoskins Park,
341326155,-33.8948593,151.1393630,Carrington Street Playground,
341328347,-33.9015032,151.1521749,Frazer Street,
342672463,-27.3557313,152.9552500,Tallebudgera Crescent,
342707379,-27.3465160,152.9602002,Tanager Street,
342722033,-27.3505608,152.9583484,Ghost Gum Court,
342974945,-27.3662351,152.9975990,Karri Place,
343015154,-27.3817230,152.9843726,Sunset Place,
343033560,-27.3835750,152.9847245,Boulton Street,
343034832,-27.3831360,152.9878270,Beckett Road,
343038441,-27.3849468,152.9914880,Hoffman Street,
343316580,-27.3499400,152.9801500,Albany Creek Road,
343348825,-27.3779164,152.9931340,Giwadha Track,
343354749,-27.3719609,152.9945290,John Wilding Reserve,
343381753,-27.3632968,152.9991352,Bangalow Street,
343608377,-37.8310650,145.1676786,Gregory Mews,
343954311,-27.4321713,152.9390624,Badrick Park,
343954352,-27.4329500,152.9416700,Donegal Place,
343954411,-27.4319150,152.9420252,Tingward Street,
344126534,-27.3801991,153.0482916,Downfall Creek Bikeway,
344150575,-27.3789300,153.0457449,7th Brigade Habitat,
344150844,-27.3783577,153.0452478,Liberty Swing,
344150856,-27.3785951,153.0455177,7th Brigade Habitat,Area covered with a shade cloth;
344150918,-27.3823747,153.0532768,Turquoise Place,
344151016,-27.3842708,153.0503666,Main Avenue,
344151356,-27.3834293,153.0596058,Virginia State School,
344151366,-27.3834000,153.0594264,Virginia State School,
344172812,-27.3856503,153.0558422,A.R.C. Hill Park,
344809183,-27.4442500,153.0415000,Perry Park,
345042568,-27.2686070,152.9711227,Valmadre Court,
345069682,-27.2535283,152.9631728,Kurwongbah Drive,
345595657,-27.3939100,153.0064000,Betling Street,
345595720,-27.3907253,153.0038754,Remick Street Park,
347958971,-37.8783580,145.2445382,Mclean Court,
347959009,-37.8813727,145.2472161,Melanie Close,
348959046,-36.9964782,144.0669510,Maldon Shire Gardens,
348996561,-27.3481948,153.0142814,Strawberry Farm Park,
349081984,-27.3466367,153.0081826,Moselle Place,
351125810,-32.6708895,152.1714159,Moira Pde,
351146934,-27.5264149,153.0409212,Sandy Creek Park,
353682379,-37.8785838,145.1140041,Bayview Reserve,
354162611,-37.9224756,145.0441573,Hodgson Reserve,
354163094,-37.9223130,145.0427355,Hodgson Reserve,
354168562,-37.9052878,145.2625937,Karoo Reserve,
355185615,-27.3987729,153.0163156,Ringrose Street,
355817636,-27.5496875,152.9849318,George Scarlett Park,
355818033,-27.5517702,152.9790720,Nixon Park,
355818041,-27.5517428,152.9787793,Nixon Park,
356133923,-37.8960431,145.2224825,Holbein Court,
356133980,-37.8978109,145.2239588,Denham Court,
356138895,-37.8941669,145.2306879,Sheppard Reserve,
356652928,-38.0695421,145.4825224,Bracelet Street,
356979533,-37.0658734,144.1978608,Park View Place,
357020661,-37.9219508,145.0449854,Hodgson Reserve,
357186556,-27.5606120,152.9706666,Lucock Park,
357187854,-27.5648970,152.9797980,Oxley Memorial Place,
357187937,-27.5580915,152.9787930,Lawson Street Park,
358834781,-37.8797594,144.7916084,C. W. Carlsson Reserve,
359311468,-27.4380600,153.0423100,Yowoggera Park,
359867201,-37.8259316,145.3011094,Marraroo Close,
360140476,-27.4966656,153.0668648,Ashton Street,
360194969,-27.5091015,153.0425204,Ekibin Park,
360293513,-27.4292865,153.0576048,Oriel Park,
360576921,-34.0773420,150.6931559,Barker Close,
360576924,-34.0773688,150.6932842,Barker Close,
360658872,-35.3318298,149.0994858,Goble Street,
361047511,-37.8304830,145.3063920,Sheridan Close,
361072877,-27.3560500,153.0156300,Aspley Rotary Park,
361072887,-27.3572000,153.0093200,Salito Street,
361072938,-27.3591234,153.0086077,Philip Vaughan Park,
361073046,-27.3487200,153.0018500,Flametree Street,
361082626,-27.3656000,153.0113200,Ben Lomond Street,
361082823,-27.3660900,153.0053900,Kakanui Street,
361233895,-37.8019953,144.9764078,King William Reserve,
363425928,-27.4900600,153.0419700,Woolloongabba Rotary Park,
363990395,-29.5846366,152.7797210,Federation Park,
364026335,-32.8826460,151.6598654,Grange Avenue Reserve,
364030782,-32.8694816,151.6423479,Konara Crescent,
364070779,-27.5162327,152.9590588,Cliveden Park,
364206309,-27.5911132,152.9616373,Frederick Cookman Place,
364862399,-37.8024321,144.9810630,Condell Street Park,
364869978,-37.8070983,144.9514176,Eades Park,
365213832,-37.8715414,144.9937170,William Street Reserve,
365264319,-33.8348833,151.1985873,Brennan Park,
366528210,-38.0689922,145.4886183,Atkins Road Reserve,
366748746,-28.8222025,153.3366594,Oliver Avenue,
366776188,-27.6464893,152.8798032,Doc and Joy White Park,
366778809,-26.6596400,153.1041700,Melrose Parade,
366781510,-26.6773454,153.0864433,Deloraine Drive,
367117209,-27.5048700,152.9154400,Moggill Creek,
368031827,-27.3974200,152.9828700,Ballinderry Street,
368031831,-27.4003100,152.9762900,Boundary Park,
368032996,-27.3947900,152.9751100,Bowman Park,
369114285,-37.8364169,144.9646173,Albert Park,
370476173,-27.4781500,153.0437900,Mowbray Park,
370476304,-27.4834937,153.0452515,Williamina Park,
370487893,-37.7949737,144.8346020,J.R. Parsons Reserve,
370820931,-27.1784554,152.9295474,Cockatoo Crest,
370822263,-27.1811233,152.9312409,Kookaburra Corner,
372543293,-38.0789345,145.4723453,William Bruce Ronald Reserve,
373088550,-27.4523373,153.1520934,Federation Street,
373661129,-32.7302145,152.1138996,Seahorse Close,
373661135,-32.7186351,152.1059421,Corlette Point Drive,
375808411,-27.3980800,152.9662200,Oxford Grove,
376335850,-37.8361270,145.3053283,Grayswood Reserve,
378538843,-27.5036600,152.9183400,Moggill Creek,
378538858,-27.5040400,152.9185600,Moggill Creek,
378685956,-27.3258175,153.0805469,Moora Park,
378686015,-27.3257369,153.0736102,Moora Park,
380462716,-27.4673400,153.0340400,C T White Park,
384026289,-37.7971750,144.9891950,McNamara Street Reserve,
385026726,-37.8031429,144.9945048,Gahan Reserve,
385148925,-25.2741305,152.8326863,Esplanade,
385281313,-27.4893300,153.0513500,The Common,
385281334,-27.4890700,153.0587000,Wembly Park,
385281352,-27.4890387,153.0633990,Wembly Park,
385281358,-27.4919424,153.0543093,Gladstone Street,
387133409,-37.7868476,144.8532704,Lance Reichstein Playground,
389631257,-27.4190205,153.0688258,T.C. Beirne Park,
390126135,-27.4120400,152.9709000,Fenwick Park,
390126140,-27.4148200,152.9662174,Pibbin Close,
393581776,-27.6421112,152.9162157,Faircloth Strret,
393737663,-27.6455467,152.9177756,H L Jones Park,
398643076,-38.0796566,145.4854000,Burke Park,
398643081,-38.0706026,145.4859032,Leonard Court,
398797133,-38.0657442,145.4473290,Clearwater Drive,
400915960,-38.0801735,145.4744927,Katjusha Court,
401025821,-27.4909325,153.0451868,Kingfisher Park,
401025905,-27.4939300,153.0428600,Flower Street,
401431081,-27.6478336,152.9183571,M McGuire Park,
401433635,-27.6494226,152.9157736,Peachface Crescent,
403637972,-27.4135000,153.0446100,Melrose Park,
403638034,-27.4060600,153.0513500,Kalinga Park,
408616697,-37.9016820,145.1717522,Brentwood Reserve,
409401748,-27.4389300,153.0692200,Hamilton Recreational Reserve,
409452546,-27.4394187,152.9856146,Dorrington Park,
410500739,-27.1820360,152.9345550,Palmer Place,
410500740,-27.1821617,152.9344410,Figbird Road,
412134008,-27.4031275,152.9804896,Teralba Park,
412134028,-27.3911700,152.9822900,Holloway Drive,
412134040,-27.3913000,152.9806900,Crockford Place,
413302963,-37.7539123,144.9381691,L.D. Johns Reserve,
413963888,-37.9455625,145.2218637,Tirhatuan Park,
413973393,-37.9385642,145.2244613,Tirhatuan Wetlands Conservation Reserve,
414553747,-32.8955563,151.6862583,Harold Myers Park,
414559374,-32.8890204,151.6910755,Lovell Parade,
414559506,-32.8890142,151.6864977,Rabaul Street,
415516861,-27.4769400,153.0576900,Moreton Street,
415516917,-27.4735117,153.0658490,Balmoral Park,
416265475,-27.3879800,153.0145200,Huxtable Park,
416265598,-27.3888200,153.0151600,Huxtable Park,
416305116,-33.9475515,151.1161164,Highgate Street,
417266802,-34.6451183,150.4785279,Mimosa Gardens,
417308390,-27.5193072,153.1944179,Skate Park,With: skateboard ;
417751087,-34.4515404,150.4492028,Winifred West Park,
417778313,-32.8906735,151.6581970,Anna Place,
417779944,-32.8848467,151.6534173,Cypress Close,
417779945,-32.8842318,151.6536400,Oak Close,
419044614,-32.9560103,151.6657716,Lodwick Lane,
419160973,-34.7775297,150.6958991,Victoria Street,
420479390,-32.9575047,151.6606486,Gertrude Street,
420556060,-33.8076596,151.0510909,The Nolan Oval,
421009849,-27.4030600,153.0596000,Buckland Road,
421009873,-27.4085600,153.0591400,Parkland Street,
424798907,-27.4958200,153.0483200,Chadwick Place,
424798917,-27.4988300,153.0421500,Junction Street,
426264515,-37.9361583,145.2255277,Debra Street,
428238106,-27.5183600,152.9776700,Graceville Memorial Park,
429001007,-32.9479123,151.6446358,Lawson Road,
429417254,-32.9078387,151.6843164,Wallsend Brickworks Park,
429775619,-27.1523022,152.9757298,Buchanan Park,
429795068,-27.3529619,153.0652280,Holme Avenue,
430135240,-27.1892218,152.9340807,Duncombe Oval,
430545351,-27.5132143,153.0384571,Ekibin Park South,
430551812,-26.2842410,152.9922853,Coates Park,
430604559,-27.4799200,152.9811300,Anzac Park,
431131407,-27.5332767,153.0524441,Greenhalgh Street,
431161399,-27.3607746,153.0593501,Parthenia Street,
431431420,-32.9479933,151.6785550,Campbell Reserve,
432427049,-32.9553689,151.6490024,Hume Close,
433486445,-33.8456951,151.1268332,Battersea Park,
434296567,-37.9562046,145.2432540,Dandenong Police Paddocks Reserve,
436192470,-27.4863400,153.0740100,Nestor Lane,
437993554,-27.3515060,153.0533213,Mulbean Park,
437993556,-27.3513457,153.0534548,Mulbean Park,
439982434,-27.5161674,153.0585037,C. B. Mott Park,
439983285,-27.5187953,153.0408836,Tarragindi Recreation Reserve,
440008396,-35.2266211,149.0546398,Lidgett Place,
441012017,-27.3790784,153.0188287,Frederik Annand Park,
441012117,-27.3823637,153.0087868,Hamilton Road,
441364929,-27.3077793,152.9880533,Strathpine Gardens,
441511026,-32.9336829,151.7722228,Nesca Park,
442044579,-32.8734258,151.6670014,Whistler Parade,
442058956,-32.8724740,151.6564346,Tumpoaba Reserve,
442127908,-27.3752493,153.0853790,Wilhelmine Kruger Park,
443189600,-37.8162097,144.9999858,Citizens' Park,
443192060,-27.4667144,153.0854705,Barina  Street,
443316302,-35.2084008,149.0493520,Chinner Crescent,
443330270,-27.1861894,152.9442436,Manuka Road,
443341015,-27.1847905,152.9373940,Ringtail Court,
443348725,-27.1726785,152.9479778,Macdonald Drive,
443348727,-27.1727568,152.9480287,Macdonald Drive,
443495815,-27.3736933,152.9813701,Dr Valentine McDowall Park,
443551870,-27.4778144,153.0946749,Picasso Street,
443651001,-35.2055315,149.0658902,Bowling Place,
443651002,-35.2054470,149.0658512,Bowling Place,
443651161,-35.2076059,149.0553931,Alfred Hill Drive,
444668326,-32.8785194,151.3656056,Poppethead Park,
445359516,-32.8783550,151.6931275,Tuxford Park,
445359960,-32.8714776,151.6929397,Lyall Park,
446874388,-32.8835133,151.7133539,,
446878117,-32.8913762,151.7191154,Melia Close,
448157722,-27.3459742,153.0309896,Silky Oak Circuit,
448161079,-32.8997002,151.7114549,Thomas Percy Oval,
448163635,-27.3437908,153.0372957,Desert Willow Way,
448177119,-27.3817100,152.9740900,Alfredson Park,
448236436,-32.8973535,151.7351711,Webb Park,
448793732,-37.7556958,144.9884069,Turner Reserve,
449746669,-35.2575616,149.0562396,Clisby Close,
449746671,-35.2587894,149.0617951,Cook Primary School,
449746673,-35.2649818,149.0692076,Mackellar Crescent,
449746675,-35.2579453,149.0712871,Dexter Street,
449746691,-35.2515777,149.0571511,Erskine Street,
452918838,-27.4093500,153.0218700,Keith Payne VC Park,
454272966,-27.2585955,153.0855070,Liberty Swing,
454719473,-27.4075200,152.9607300,Jurayelba Place,
454719524,-27.4092900,152.9547400,Duggan Street,
454719627,-27.4021400,152.9589700,Grovely Sports Ground,
458003585,-31.8721206,152.6892114,Beach Street,
458063331,-31.8721047,152.6830316,Beach Street,
458699615,-27.5323306,153.0318327,Pegg's Park,
458700464,-27.5284967,153.0258201,Moolabin Park,
459413194,-37.8380431,145.2423912,Dirkala Avenue,
459416715,-38.0662686,145.4855794,Damien Court,
459416716,-38.0670140,145.4829046,Finch Court,
459510342,-37.7765469,144.9744320,Douglas Reserve,
460356748,-26.6542303,153.0955177,Maroochydore Rotary Park,
460401263,-27.4628253,153.0785633,Elaroo Street,
460427794,-33.8393595,151.2014772,Ancrum Street,
462069289,-27.4592874,153.0959984,Park Hill Outlook,
462238020,-33.5260845,149.7235167,O'Connell Road,
464998054,-27.4101482,153.0397500,Mercer Park,
464998059,-27.4066524,153.0408638,Mercer Park,
466941230,-37.7559694,144.8207177,Grantham Green Public Reserve,
467005465,-26.6341725,152.9569999,Moss Day Park,
467106949,-26.6189177,152.9309269,Casuarina Street,
467106976,-26.6221061,152.9354145,Edmund And George Biggs Park,
467135002,-26.6245500,152.9405300,Con & Olive Daetz Park,
469066366,-33.7934624,151.0544689,Yates Avenue,
469104036,-34.0868561,150.6888518,Hayter Reserve,
469629165,-27.4144594,153.0336500,Amelia Park,
469692037,-27.0617660,151.3215734,Kylie Street,
469747705,-37.9783005,145.1282018,Golfwood Close,
469747739,-37.9812871,145.1406492,Rowan Road Reserve,With: parking ;
470341891,-32.9102977,151.7201239,Cameron Park,
470820866,-27.5720935,153.0779359,Bleasby Road Bikeway,
470820868,-27.5799319,153.0769532,Yugarapul Park,
470820874,-27.5811575,153.0762242,Yugarapul Park,
470820876,-27.5693621,153.0852189,Freesia Street Bikeway,
471250356,-37.9061332,145.2697440,Parklane Way,
473347217,-27.5213137,153.0228653,Yeronga Memorial Park,
474112471,-37.9859652,145.1249964,Holland Avenue,
476083550,-38.0717881,145.4975461,Homegarth Park,
476101217,-37.7725429,145.0719220,Yarra Flats,
479783323,-37.7845309,145.0126350,Yarra Bend Park,
480537563,-27.3957100,153.0281900,Bradbury Park,
480537594,-27.3880983,153.0280141,John Patterson Park,
480537631,-27.3892800,153.0359200,Burnie Brae Park,
480537659,-27.3899300,153.0354600,Burnie Brae Park,
480642598,-37.9746839,145.1312597,Greenwoods Close,
482341190,-27.3975800,152.9615400,Leslie Patrick Park,
482341191,-27.3974600,152.9614200,Leslie Patrick Park,
490681473,-27.3287904,153.0456872,Talltrees Street,
490720333,-27.3185319,153.0378329,Ferguson Park,
491706447,-27.3885400,152.9766200,Dandaloo Reserve,
495878000,-27.2567300,153.0958300,Moreton Bay Cycleway,
495878007,-27.2567300,153.0960200,Victoria Avenue,
496953982,-36.8970598,145.2306628,Jubilee Park,
497555107,-27.3744140,153.0958072,Nudgee Waterholes Reserve,
499720732,-27.5343722,153.0571772,Gaza Road,
499720749,-27.5280200,153.0578500,Cannes Street,
501552886,-33.8083394,151.2876404,Coal Gas Plant,
502846683,-33.7208172,150.8940446,Mihkelson Reserve,
502864669,-27.2504018,153.0896815,Yourell Park,
512095093,-32.7181456,152.1176078,Sandy Point Road,
512765483,-33.8453562,151.2439815,Ashton Park,
513060666,-37.8338459,145.0106350,Winifred Crescent Reserve,
514275611,-28.0999014,153.4622927,Tallebudgera Surf Life Saving Club,
517227616,-37.8439811,144.9936108,Grosvenor Reserve,
519974011,-27.2784964,150.4615082,Smallacombe Street,
520726799,-33.9491822,150.9567674,Morley Avenue,
522453624,-33.9455730,150.9476727,Meehan Avenue,
522805514,-35.1945163,149.0617224,Glassey Place,
523610232,-37.8487722,144.9853873,Alfred Street,
529363074,-27.3701600,153.0089200,Hillcrest Street,
529835176,-37.8066286,147.6173908,Wy Yung Heights,
529848661,-37.8232952,147.6423933,Howitt Park,
531224164,-27.5306644,153.0105296,Allawah Street Park,
532813158,-37.8396865,144.9997718,Cromwell Road,
534016281,-37.8193786,144.9984553,Alexander Reserve,
534122383,-27.2650642,153.0131613,Black Duck Creek,
534130217,-27.2688574,153.0144493,Northquarter Drive,
535017192,-37.8390924,144.9876992,Caroline Gardens,
535017211,-37.8405971,144.9884116,Macfarlan/Alexandra Playground,
536295107,-37.8437714,144.9897876,Argo Reserve,
536295109,-37.8447204,144.9905858,Argo/Osborne Playground,
538132540,-37.6980205,145.1372234,Glendale Reserve,
538308526,-27.4014100,153.0577900,Boyd Park,
538308599,-27.3949500,153.0508200,Frank Roberts Park,
539989673,-32.7577579,151.7516829,Alton Road,
541421515,-37.9098010,145.1164954,Princes Highway Reserve,
542897404,-27.4677735,153.0707845,Morningside Park,
549680953,-33.5297951,149.2527386,Osman Street,
549746518,-37.8115614,144.9865788,Powlett Reserve,
549764855,-33.7067803,151.0291875,Ravensbourne Circuit,
552935801,-38.2150477,145.3769963,,
555699127,-37.8445057,144.9536971,Little Finlay Reserve,
558300180,-27.5337200,153.0644000,Beryl McKenzie Park,
560213036,-37.8361993,144.9503284,Lyal/Iffla Reserve,
561090998,-27.2166808,153.0836569,Griffith Road,
566630528,-27.3593222,153.0068988,The Allen Guy Walking Track,
566872411,-37.8386818,144.9444283,Edwards Park,
567247368,-27.3203454,153.0320549,Barrett Street,
567304454,-27.3170781,153.0242797,Norris Road State School,
567743153,-35.4071874,149.0709425,Lake Tuggeranong District Park,
567771661,-37.7558812,144.9390567,Dunstan Reserve,
567845675,-27.6194000,153.3747600,Corroboree Park,
568944130,-37.8381105,144.9407457,Florence Place,
569040337,-27.3171949,153.0437629,Greendale Place,
570482554,-37.8513500,145.0098288,Orrong Park,
571382313,-27.4579800,153.0682400,Fishermen's Bend,
571669085,-33.6969249,151.2921584,Katoa Reserve,
572091214,-37.8579005,144.9770337,Albert Park,
574756318,-33.9597067,151.0229614,Little Salt Pan Reserve,
575455085,-37.8524619,145.0002055,Lumley Playground,
576843552,-37.8546583,144.9940776,James Street Reserve,
577057182,-32.2202496,151.9376472,Wards River Community Park,
577464339,-37.8669060,144.6829376,Moreton Court,
579144621,-27.3161577,153.0711676,Moora Park,
579535704,-27.2903469,153.0591288,West Street,
581429477,-37.8814829,145.2150406,Waverley Christian College,
581616893,-32.8972920,151.7886328,Griffith Park,
582225717,-37.9164511,145.2891307,Carrera Close,
582304694,-37.8799132,145.2153998,Waverley Christian College,
582426336,-27.4779480,153.1368739,Honiara Street,
582553483,-37.8048882,145.1093565,Gawler Chain Trail,
582558472,-37.8013670,145.1294368,Tassels Park,
582785631,-37.8385382,144.9675983,Albert Park,
583063466,-37.8613837,144.9830271,Waterloo Reserve,
583093691,-37.8791951,145.1490242,Fiander Avenue Playground,
585074634,-27.5045020,153.0576693,Trundle Park,
585074855,-27.5079510,153.0675910,Eva Street,
585131068,-27.5137817,153.1012788,Almavale Court,
585512639,-37.6986405,144.7467584,Parkwood Green Reserve,
585686496,-37.9733304,145.0595284,Booker Street Playground,
585686500,-37.9764935,145.0616527,Frankston Line,
585686503,-37.9779946,145.0794089,Mentone Racecourse Reserve,
585686505,-38.0086828,145.0848699,Beach Road,
585686531,-37.9751488,145.0722313,Reg Marlow Reserve,
585686534,-37.9721337,145.0686049,Ward Street,
585686535,-37.9709369,145.0715983,Follett Road,
588393097,-37.7775159,144.8736467,Ulmara Park,
590694155,-37.8044894,144.8891527,James Street,
593542232,-27.3073416,153.0150936,Thomas Grey Park,
594044097,-27.3582200,153.0210200,Fred Campbell Park,
594044239,-27.3507000,153.0201900,Matthew Gardiner Park,
594518606,-37.8647074,145.1676335,Highview Park,
598415068,-32.9610726,151.6179439,All Ability Playground,
599107279,-37.8133814,147.6259066,Balmoral Crescent,
599429539,-37.7495149,145.0176352,Walsh Reserve,
599442166,-37.7722897,145.0050556,Derby Reserve,
599925373,-32.6516073,152.1549029,Captains Cove,
600238100,-27.1134341,152.9395976,Maurice Avenue,
600349771,-33.7713560,150.6347201,Lapstone Tennis Club,
600602581,-33.7734920,150.6395140,Governors Drive,
600771257,-33.7637150,150.6202774,Moore Street,
601245396,-33.7697738,150.6180637,Douglas Smith Memorial Park,
601414296,-26.1035059,151.4484392,Lake Boondooma,
601447248,-27.5180418,153.0216586,Yeronga Memorial Park,
602470695,-36.5781766,146.3791632,Byrne Street,
602897462,-37.7788354,145.0612869,Ivanhoe Public Golf Course,
602911465,-37.7591036,145.0803650,Banksia Park,
603005216,-37.7627797,145.1753226,Schafter Drive,
603010591,-37.7674805,145.1679559,Whistlewood Close,
603578577,-37.7181353,144.7906577,Copernicus Way Reserve,
604126307,-37.8229818,145.0683797,Outer Circle Line,
604327110,-37.7490595,145.0386092,Bell Street,
605203943,-37.7034075,145.1428083,Allison Crescent,
605203944,-37.7002073,145.1314142,Progress Road,
605203945,-37.7004280,145.1260284,Malcolm Blair Reserve,
605203946,-37.7040781,145.1233140,Woodland Reserve,
605203947,-37.7070320,145.1319721,Ramptons Road,
605203949,-37.7110213,145.1588050,Cooinda Reserve,
607813827,-38.1005212,145.1290618,Coonara Avenue,
612775508,-37.8597825,144.9700659,Catani Gardens Playspace,
612777471,-37.8570798,144.9712669,Children's Playground,
612811998,-33.7608307,151.0653548,Bingara Road,
612812012,-33.7602810,151.0687492,Cheltenham Oval,
614585946,-33.9108321,151.1998994,Queen Street,
614626938,-27.3677200,152.8373300,Westwood Drive,
614626954,-27.3693400,152.8525300,Undambi Rotary Reserve,
616071543,-37.9359130,145.0261634,Wishart St playground,
617924241,-24.8658094,152.3651200,Baldwin Swamp,
618015679,-27.3985108,152.9421296,George Willmore Park,
618015712,-27.3973307,152.9512188,Melrose Park,
618015851,-27.3977061,152.9542857,Sue Miller Park,
618015881,-27.3944222,152.9549498,Camden Park,
619040725,-27.6079300,152.7731590,Joyce Street,
619743578,-27.5200400,153.0142600,Rowlinson Park,
619743644,-27.5262000,153.0210200,Moolabin Creek,
619753333,-38.0847877,144.3412927,Maynooth Reserve,
619753810,-38.0745832,144.3459101,Paley Reserve,
619754008,-38.0700413,144.3461957,Landale Court Reserve,
619754213,-38.0738251,144.3598420,Shell Reserve,
619754214,-38.0736782,144.3595322,Shell Reserve,
619754432,-38.0685207,144.3557937,Lincoln Reserve,
619754523,-38.0670266,144.3470909,Cohuna Reserve,
619754735,-38.0773943,144.3624376,Detroit Reserve,
619754803,-38.0735494,144.3647572,Talona Reserve,
619754903,-38.0718212,144.3650963,Rotella Reserve,
619754942,-38.0699835,144.3639119,Donax Reserve,
622251374,-38.1006846,144.3721738,Moorpanyal Park,
622599669,-38.1157968,144.3218774,Haines Reserve,
622599755,-38.1121563,144.3252433,Sharland Park,
623032383,-33.7659180,150.6231680,Glenbrook Park,
623808576,-27.3740199,152.8848830,Corbett Street,
623908903,-37.7962940,144.9728041,Canning Street,
627406544,-33.8220831,151.1284074,Westminster Road,
630491955,-33.7186039,150.6148267,Warrimoo Oval,
632050758,-37.6966948,144.9641743,Summerbank Reserve,
632235922,-33.4079203,149.5750293,Bathurst Adventure Playground,
632246277,-33.7516208,150.6164583,Lennox Park,
632277190,-37.9702141,145.3937101,Crystal Brook Picnic Area,
632375054,-33.7507696,150.6077391,Blaxland FC,
633154945,-27.4400081,153.0163873,Finsbury Park,
634533325,-35.2452987,150.5378535,Boronia Street,
635390648,-36.4626349,146.2245602,North Eastern Standard Gauge Line,
635535458,-33.7912849,150.9866373,Robin Hood Park,
635744518,-35.1835476,150.5705343,Dyball Reserve,
636788507,-35.2587088,150.5103110,Yulunga Reserve,
639582629,-33.6898017,151.1004484,Storey Park,
642661864,-37.6603498,145.0872820,Tennyson Park,
646035023,-35.4185460,149.0830618,Charleston Street,
648748560,-35.2896189,149.1307031,Commonwealth Park,
652408647,-33.7410156,150.6271941,Robertswood  Park,
660544739,-37.8170291,144.9862920,Yarra Park,
660551849,-27.0366910,153.1479477,Avon Drive,
660551913,-27.0329003,153.1484038,Avon Drive,
660649839,-27.4749896,153.0886301,Seven Hills Bushland Reserve,
660938173,-37.8457522,145.1061257,Box Hill Apex Park,
661900061,-35.2464894,149.1434696,Bonython Street,
662811000,-23.3671096,150.5142447,Kershaw Gardens,
662811227,-23.3627785,150.5156560,Kershaw Gardens,
663569481,-33.7833058,151.1626146,Edenborough Road,
665795580,-27.3500411,152.5452343,Logan Inlet,
665850465,-27.2640293,152.1939255,Lake Cressbrook,
666655064,-23.3682631,150.5055081,Victoria Park,
666827490,-34.0664598,151.0123650,Engadine Town Park,
667941201,-27.5233087,153.0724650,Ray Lynch Park,
667941204,-27.5214446,153.0710411,Glindemann Drive,
667941221,-27.5230470,153.0728058,Ray Lynch Park,
667941238,-27.5232500,153.0787786,Cunard Street,
670140423,-27.6525412,153.1032562,Ashton Park,
670140582,-27.6529747,153.1108712,Mary Huntress Park,
670215928,-27.6206851,153.1027636,Coniston,
670228644,-27.6316083,153.1037366,Albert Park,
671042398,-27.6215718,153.0996500,Nyanza Street,
677243539,-28.0641796,153.4432473,Gold Coast Oceanway,
678439941,-27.3886643,152.9548327,William Scott Park,
678440111,-27.3859959,152.9573294,Arlington Park,
678440154,-27.3852022,152.9595974,John Carter Park,
679619012,-33.9062099,150.8654594,Wilson Road,
679633605,-28.1677685,153.5307598,Musgrave Street,
679761044,-33.7155121,150.4969904,Burke Road,
681213926,-26.6973949,153.0995662,The Esplanade Park,
683114640,-34.2615423,150.8082032,Baden Powell Drive,
683256344,-26.7034000,153.0964400,Glenfields Neighborhood Park,
683758228,-37.5651130,149.1525774,Mick Baum Park,
683780309,-35.2004103,149.1390653,Gwen Meredith Loop,
683787765,-36.3566889,146.2997737,Dodsworth Street Reserve,
687077629,-37.7455956,145.0639960,Haward Walk,
690280974,-37.7849755,144.8778485,Scovell Reserve,
691386372,-33.6613669,151.0051946,Rotary Park,
691508046,-38.0619606,145.5022575,Jarrah Court,
697188647,-37.8430258,144.8820486,Paine Reserve,
697191923,-37.8607672,144.8770945,Hobsons Bay Coastal Trail,
697299398,-33.7476330,150.9385128,Howe Place,
697299406,-33.7534761,150.9407444,Molyneaux Avenue,
699515127,-26.8555120,152.9486853,Chantilly Cresent,
702328722,-27.4487690,153.0258380,Royal Brisbane Childrens Hospital,
703530339,-37.2028626,145.0508290,Memorial Park,
703580046,-37.4136422,144.9804043,Hadfield Park,
705722563,-33.7032926,149.8503979,Oberon Street,
705915690,-27.0805321,152.7716556,Mount Mee Road,
705948504,-37.2317065,145.9068393,Lake Elidon National Park,
706903501,-37.7961867,144.8693504,Gaudion Reserve,
706953321,-32.8791702,151.6162798,Woodford Street,
706960765,-32.8778481,151.6187412,McInnes Street,
707091740,-37.8004626,144.8635847,Fontein Street,
709479343,-37.1884945,145.7108762,Leckie Park,
710134898,-28.1278071,153.4775757,Treasure Island Playground,
712793099,-37.4213187,144.9792777,Greenhill Reserve,
712849744,-27.5030868,152.9836566,Saint Peters Lutheran College,Access: private;
716345678,-32.3460027,151.9294258,McIntyre Street,
718627706,-37.7608849,145.0339595,Stortford Avenue,
718633021,-37.7683075,145.0351585,Miles Reserve,
718635028,-37.7679004,145.0375966,Nellie Ibbott Park,
722043393,-37.5990608,144.9268078,Clovelly Drive,
723596979,-37.8873068,145.0581963,Shepparson Avenue,
724183768,-37.6088251,144.9256880,Yarcombe Crescent,
724183769,-37.6086190,144.9253152,Yarcombe Crescent,
724893783,-33.7451740,150.9912760,Alfred Henry Whaling Memorial Reserve,
725683397,-37.5806631,144.9298474,Hyde Park Reserve,
726415943,-26.8846804,152.1015323,Morris Street,
726581718,-27.3046077,152.9966187,Pine Rivers Community Peace Gardens,
727278383,-27.3706244,152.9854239,Solar Park,
728374438,-37.6014895,144.9375065,Craigieburn Gardens,
731633332,-37.2538926,144.4624220,Jean Haynes Playground,
732134751,-27.5264731,153.0893456,Scurr Park,
734822670,-27.8726426,153.3055576,Saint Stephens Drive,
734822920,-27.8738638,153.3003905,Upper Coomera State College,
734835293,-37.6771433,144.8794433,Ashford Crescent,
734837040,-37.6782090,144.8892065,Coopers Hill Drive,
734837206,-37.6798606,144.8740788,Hyton Close,
734888002,-27.8445916,153.2953151,Rosemallow Avenue,
735092576,-37.6719078,144.8884082,Tollkeepers Parade,
735097575,-37.6725755,144.8823620,Bateman Street,
736039437,-27.8809234,153.2989523,Riverside Residential Resort,
738366282,-27.4516889,153.0134888,Grey Gums Park,
738367478,-27.4506668,153.0120635,Multipurpose Hall,Access: private;
739252197,-27.5521218,153.0980269,McCarron Park,
740368538,-27.5954233,153.1230997,Graham Hogg Park,
742630763,-33.8227708,151.1419101,Boronia Park,
742630979,-33.8158824,151.1364123,Buffalo Creek Reserve,
746340864,-37.8033061,144.9942204,Gahan Reserve,
746919191,-32.9424122,151.7505376,Dent Street,
747042540,-38.0904074,145.1911365,Carrum Woods Drive,
748717740,-35.4093950,149.0966076,Seaver Street,
748835345,-27.4822352,153.1140251,Minnippi Parklands,
761217359,-27.4899600,153.0984718,Clem Jones Centre,
764075137,-33.0484364,151.6157445,Skye Point Road,
766081319,-27.5921308,152.7343266,Willy Wagtail Circuit,
766081335,-27.5976602,152.7428339,Sutton's Park,
766153765,-32.9889859,151.6811636,,
766967767,-37.1607482,144.2142797,Loddon River,
768268914,-38.1467268,145.2013784,Josephene Street,
768520984,-33.9177722,151.0918418,Belmore Sports Ground,
769198691,-32.9353268,151.7389437,Fowler Street,
773676885,-32.7429656,152.1703666,Marine Drive,
774303990,-33.7616281,151.0061100,Bidjigal Reserve,
776252552,-38.0599782,145.4842002,Union Avenue,
784036547,-27.6889639,153.1750390,Danyenah Street,
787097684,-37.9338737,145.1348044,First Street,
787130661,-37.9436250,145.1340378,Monash Crescent,
792621122,-37.8876576,145.3176693,Acacia Track,
796920490,-34.1149095,150.9360419,Chidren playground,
797805134,-37.8480772,145.1773162,Dorene Court,
800279588,-33.8114041,151.2013392,Bicentennal Reserve,
805778305,-32.7405281,151.6164544,Metford Road,
807759938,-33.6866785,151.1043864,Hyacinth Street,
808639894,-32.7040700,151.5309749,Honeyoak Drive,
816332223,-33.9013791,151.1893678,Fox Avenue,
816762634,-35.1720728,147.3783242,Lake Albert,
816771631,-35.1731953,147.3777663,Lake Albert,
816840638,-35.1729214,147.3669304,Lake Albert,
821370753,-27.0621603,153.1438734,Crest Park,
821370755,-27.0602643,153.1531440,Currong Crescent,
821370789,-27.0580084,153.1412503,Clayton Park,
821370801,-27.0601923,153.1401184,Taranggeer Trail,
821392019,-37.8156908,145.0854612,Evergreen Reserve,
822367956,-38.5520899,145.4786054,Wonthaggi Rail Trail,
824529563,-32.8153255,151.4775297,Wermol Street,
824580203,-32.8077714,151.4539827,,
825264589,-35.1659315,147.3689702,Lakeside Drive,With: bench ;
825480051,-33.7367098,150.9906726,Coolong Street,
825834233,-32.8149760,151.4518797,Cessnock Road,
825834236,-32.8149061,151.4518153,Cessnock Road,
825834241,-32.8148024,151.4516973,Cessnock Road,
825874510,-32.8193231,151.4619326,Webb Street,
827593636,-32.8240656,151.3532369,Church Street,
827593682,-32.8303742,151.3454076,Maclean Street,
827616460,-32.8394634,151.3344991,Arcadia Street,
827633412,-32.8267703,151.3295289,O'Shea Circuit,
831582899,-32.7373900,151.8772027,Coolabah Road,
832379185,-27.5786668,152.7608057,Cranes Road,
838562041,-33.9934088,151.1268599,Len Reynolds Reserve,
839528352,-21.0469408,149.1856349,Camilleri Road Park,
839528615,-32.6798961,151.3492161,Rothbury Street,
841427163,-33.9813814,151.0605393,Ridge Track,
841918958,-33.8039565,151.1420433,Magdala Park,
842976705,-34.0033101,151.1353892,Cook Park,
843095651,-33.9626356,151.1453561,Bicentennial Park East,
850795961,-36.7112865,142.1971349,May Park,
854330414,-38.3391400,143.5878350,Memorial Square,
854356640,-33.9447913,151.1469780,Arana Close,
861226384,-33.7783023,151.1332755,Tuckwell Park,
861226389,-33.7765004,151.1300205,Fontenoy Park,
863014055,-33.9254371,151.1980524,Lauriston Park,
867022860,-38.1644787,144.3975637,Vega Reserve,
867022861,-38.1625428,144.3984220,Mars Reserve,
869737759,-33.9819479,151.0994089,Greenacre Road,
876940583,-37.5846872,144.7419292,Sunbury Road,
883846270,-17.2575455,145.5110211,Atherton airstrip,
896451897,-33.7584558,150.9594371,Amphitheatre Circuit Reserve,
897046007,-33.7674173,150.6483596,Leonay Parade,
897118133,-33.7630722,150.6538174,Leonay Golf Course,
907939700,-27.6340371,153.1162851,Timothy Creek,
910320262,-27.6369640,153.1098397,Yugumbri Park,
910321880,-27.6331573,153.1100972,Ewing Park,
910326804,-27.6375155,153.1130325,Tooloma Park,
916272939,-27.2690229,152.9786013,Young Street,
916272954,-27.2604708,152.9756369,Augustins Crescent,
916272957,-27.2617725,152.9723670,Rue Montaigne,
920154273,-27.2914856,152.9448374,Silverash Court,
920154274,-27.2938692,152.9421338,Sonata Drive,
921236077,-27.6226841,153.1129800,Booran Park,
929765590,-27.6470997,153.1096355,Mayes Park,
936116654,-27.6549626,153.1209000,Goldmine Park,
939195036,-37.8515615,145.0501367,Burke Road South Reserve,
941379202,-26.7573143,152.8434861,Hakea Avenue,
942205699,-27.6562501,153.1061200,Beta Park,
942205700,-27.6561887,153.1022586,Dart Park,
943129281,-17.5114075,145.6139323,Lions Park,
944825751,-27.7047689,153.2161989,Eagleby South State School,
955894258,-37.7809142,144.8531753,Ash Reserve,
961404387,-27.6345654,152.5903905,John Street,
964688949,-27.7507277,153.1849539,Sunridge Circuit,
964688951,-27.7501960,153.1845515,Parkview Street,
973229633,-37.8379090,144.9363520,Swallow Street,
973252137,-37.8364510,144.9293300,Garden City Reserve,
973258816,-37.8361810,144.9238930,Cyril Letts Reserve,
975709586,-27.8960022,153.2830205,Heritage Gardens,
978007137,-33.7029432,151.1269338,Eric Evans Park,
978444419,-27.8976315,153.2851826,John Siganto Park,
982065077,-27.5919009,151.9799042,Cypress Street Park,
986393802,-27.7540459,153.2105705,Sears Road,
988626667,-26.4813388,153.0972792,Beach Access,
992138169,-33.8136765,151.1094002,Ryde Park,
992174396,-37.7976850,145.0612203,Stradbroke Park,
992174397,-37.8017033,145.0567035,Outer Circle Line,
992174401,-37.8101886,145.0631301,Outer Circle Line,
993548730,-27.1791539,153.0252676,Doman Court,
993559324,-27.1781695,153.0203263,Deception Bay Lions Park,
993579435,-27.1744837,153.0202876,Bridecroft Court,
994538136,-27.1795209,153.0096686,Leonie Street,
997665512,-27.8426879,153.3350850,Jackson Street,
1001759752,-35.9812861,146.6342281,Lowe Square Playground,
1001767977,-35.9976034,146.3728649,Beryl Drive Park,
1001767979,-35.9982151,146.3779303,O'Brien Court Park,
1001767980,-35.9942268,146.3880973,RSL Park,
1001767982,-36.0025706,146.3838712,Lions Park,
1001985361,-33.7824920,151.0843951,Somerville Park‎,
1003169147,-35.9892749,146.0068120,Swimming Pool Reserve,
1003252380,-34.0448568,150.8435139,Normandy Reserve,
1003290047,-36.0243038,146.3760049,Morris Park,
1003290052,-36.0180967,146.3773960,Lions Riverside Park,
1003290053,-35.9899634,146.3842173,Archie Sutcliffe Park,
1003290056,-36.0015136,146.3926224,Bangerang Park,
1003324897,-35.9868084,146.4026766,Lone Pine Park,
1003330851,-33.9012628,151.1846446,Lambert Street,
1004952824,-34.0472224,150.8426173,Leumeah Park,
1004997376,-27.7045196,153.1697094,Edens Landing Parkland,
1010166094,-27.9914295,152.6894651,Springleigh Park,
1010179628,-28.0007133,152.6815364,Toby Slatter Park,
1015316618,-38.1893451,146.5300565,Gilwell Avenue,
1015752736,-27.5155994,153.2226032,George Street,
1017308912,-37.7762646,145.0091501,Johnson Park,
1021807422,-37.8043780,144.9973100,Browns Reserve,
1021875522,-37.8019465,144.9912053,Collingwood Community Gardens,
1046730100,-37.8034040,144.9727520,Museum Playground,
1058827888,-27.3340013,152.9057431,Garrawin Court,
1065160647,-27.4096927,152.9231345,Upper Kedron Park,
1068824374,-27.3508513,152.9441095,George Biggs Playground,
1068826029,-27.3742467,152.9264481,Surrey Farm Plantation,
1076306961,-37.7890327,144.9284488,Kensington Hill Reserve,
1080144039,-37.7623148,144.9252525,Queens Park,
1080256236,-27.3177846,152.9375677,Frank Nichols Reserve,
1081491400,-35.2593540,150.5177500,Sunset Strip,With: swing ;
1081491428,-35.2657055,150.5122917,Cunjurong Point Reserve,With: swing ;
1086968233,-37.7783130,145.0370564,Sparks Reserve,
1101701024,-27.6410701,153.2586859,Vineyard Drive,
1106937397,-37.8900626,145.1822930,Paxton Drive,
1107122478,-37.8934005,145.1863134,Garrick Court,
1110084553,-29.4796293,153.3612623,The Crescent,
1110122698,-27.6662367,153.1436461,Edenlea Park,
1110141988,-33.8360982,151.2323519,Reid Park,Wheelchair: limited;
1110141998,-33.8413922,151.2267526,Sirius Street,
1111301609,-38.2597941,144.5201657,Field Street North,
1114508815,-27.8082101,153.2358508,Frederick Johnson Park,
1116382155,-27.9728138,153.2038090,Siganto Street,
1116382159,-27.9729085,153.1968996,School Road,
1118309741,-28.4053661,152.3077996,Killarney Road,
1121117972,-37.7666439,145.0436014,Bryant Reserve,
1121149900,-38.0451910,145.2903352,Lake View Drive Playground,
1121636961,-27.6420797,153.3041462,Azure Avenue,
1123204685,-38.1065593,145.2832459,Brunt Street,
1125992678,-27.6855541,153.1504972,Progress Park,
1129197521,-27.6501462,153.1252007,Duke Street,
1130365988,-37.7902470,144.9908380,Darling Gardens,
1131712506,-38.1340544,145.8610636,Civic Park,
1131755936,-38.1249186,145.8456623,Princes Way,With: bbq ;
1143794537,-27.3309678,153.0290148,Kristina Close,
1146722912,-30.2245203,151.6712608,Apex Park,
1146882967,-30.2150800,151.6771951,White Park,
1158725632,-33.7272605,151.0454632,Holly Road,
1159034290,-27.3484035,152.9727443,Devoran Street,
1159036625,-27.3479327,152.9638510,Chowchilla Street,
1164594809,-33.7888051,151.1136619,Shrimptons Creek,
1164594812,-33.7871555,151.1116663,Kent Road,
1170823096,-33.7739941,151.0780164,Boronia Park,
1170823099,-33.7741190,151.0783811,Boronia Park,
1170823104,-33.7772581,151.0716005,Dunlop Street,
1170823128,-33.7724307,151.0837755,Chambers Court,
1174338600,-33.6734139,149.0466057,Capital Park,
1178727331,-27.2914783,153.0512352,Pomona Street Park,
1182187289,-27.2960995,153.0606722,Princess Street Park,
1182187538,-27.3033920,153.0616810,Apex Park,
1182187547,-27.3069149,153.0646759,Brighton Roosters,
1183995682,-33.7633830,151.1323409,Ku-ring-gai Bicentennial Park,
1184175129,-33.9893178,151.1132602,Todd Park,
1194022360,-27.3122740,153.0581008,Peace Park,
1194968114,-33.9018204,151.0971693,Flockhart Park,
1194968151,-33.9061024,151.0966291,Third Avenue,
1197879024,-33.9345446,151.1985204,Todd Reserve,
1197879030,-33.9345986,151.1983597,Todd Reserve,
1199747380,-35.8076298,144.2243716,Cohuna Island Road,
1201124851,-34.0287673,150.7384752,,
1201124856,-34.0288781,150.7392547,,
1201302449,-27.2862990,153.0634630,Decker Park,
1201374289,-34.4267600,150.8944480,McCabe Park,
1202332065,-34.0289134,150.7470971,,
1203034331,-38.0844762,145.4779542,Ron Andrews Park,
1206890683,-36.2328352,149.1117464,Vulcan Street,
1209137172,-37.0403386,148.9467525,Delegate River,
1211608548,-37.8007747,147.4573333,Amy Shand Park,
1213122148,-27.6517561,153.0496440,Lapford Circuit,
1213122213,-27.6528765,153.0451374,Trinity Way,
1215759790,-33.8060004,151.0803000,Victoria Road,
1218574733,-33.9725096,150.9973878,Lambeth Park,
1223070756,-27.6051002,152.6617678,Walloon State School,
1224336159,-36.5340440,144.2033653,Raywood Aquatic Centre,
1227658384,-29.3595875,153.2820294,Iluka Road,
1227855806,-38.8102070,146.0425756,Gale Street,
1228877353,-33.7608798,150.6657181,Tench Reserve,
1228877386,-33.7623938,150.6639208,Tench Reserve,
1230234668,-34.3296271,150.6121975,,
1232143521,-27.6198395,152.8559294,Bowtell Cort,
1232533546,-29.4516830,153.2023706,Maclean Sports Centre,
1237111172,-34.0312602,151.0998905,Gilmours Tennis,
1237961207,-38.3079639,145.1959373,Skate Ramp,
1237961221,-38.3080607,145.1962967,Marine Parade,
1239476215,-27.3239950,153.0846977,Lower Moora Park,
1240556026,-27.3248952,153.0660518,Silvan Street,
1244969274,-33.7230213,151.0925855,Kenley Park,
1245187581,-36.3384057,141.6452971,Nhill Swamp Wetlands Reserve,
1246510550,-27.3086733,152.9525923,Caspian Parade,
1247836016,-27.3059445,152.9545281,Pallas Parade,
1249105684,-38.0157473,145.3361438,Bellbird Park,
1252180114,-37.7425278,145.0436660,Malahang Reserve,
1252219564,-37.7650876,145.0326775,Seddon Reserve,
1256660712,-37.7544829,145.0368505,Ford Park,
1258959069,-33.8051512,151.2458649,Spit West Reserve Parking Area,
1258959083,-33.8274347,151.2426871,Allan Border Oval,Wheelchair: limited;
1258959091,-33.8163814,151.2397837,Bay Street Reserve,
1258959094,-33.8199622,151.2355833,Countess Park,
1258959101,-33.8157593,151.2481099,Chinamans Beach,
1258959102,-33.8340243,151.2301104,Reginald Street Park,
1258959107,-33.8283036,151.2533019,Balmoral Park,Wheelchair: no;
1258959128,-33.8383582,151.2532311,Clifton Gardens Reserve,Wheelchair: limited;
1258967989,-33.7218824,151.0444249,Cherrybrook Lakes,
1259611981,-26.8370014,152.9604531,Australia Zoo car parking,
1260372574,-37.6871382,145.1104505,Apollo Parkways Primary School Playground,
1260646690,-37.8268490,145.2231244,Proclamation Park Playground,
1260646692,-37.8274761,145.2251709,Maidston Street Playground,
1260646697,-37.8185945,145.2317370,Greenwood Avenue,
1260720488,-37.2801472,146.1326660,Jamieson Brewery,
1266396951,-33.8703769,151.2642334,Lyne Park,
1266886209,-33.9901272,151.1173901,Carss Bush Park,
1268343910,-33.9657284,151.1417517,Moorefield Avenue,
1270970109,-37.8826961,145.2445915,R.D. Egan-Lee Reserve,
1271654708,-37.7579593,144.9703030,E G Pooley,
1272661375,-37.7578493,144.9743308,Loreto John York Reserve,
1275292840,-33.2325222,151.5461622,Lake Budgewoi,
1275292918,-33.2282914,151.5447736,Mahami Close,
1276491765,-27.7153437,153.1475191,Grand Terrace,
1277907270,-28.2901489,152.2490077,Farm Creek Park,
1277936372,-28.1956602,152.2078508,Yangan Park,
1278000291,-28.8529229,151.1658717,Broadway East,
1278763533,-26.6409931,149.9804117,Drillham Park,
1279034373,-37.7586231,145.0411501,Donaldsons Creek Trail,
1279034375,-37.7609514,145.0390741,Donaldsons Creek Trail,
1279034381,-37.7643186,145.0391867,Donaldsons Creek Trail,
1280037939,-34.0417350,151.1209180,Coles,
1280038491,-34.0440430,151.1190890,Breen Park,
1280038900,-34.0482147,151.1251456,Robin Place Reserve,
1280168038,-33.8268369,151.2045201,Cahill Playground,
1282533172,-27.5342537,153.2834897,Nandeebie Park,
1282731482,-27.6627203,153.0203800,Seaton Street,
1283586336,-34.0419638,151.1119998,Kareena Road,
1283586337,-34.0430262,151.1126409,Kareena Park,
1283595379,-34.0467503,151.1517478,Judd Street,
1285912889,-27.5302555,153.2738038,William Ross Park,
1287453549,-37.7694946,144.9643676,Randazzo Park,
1288823330,-27.6236993,152.9582732,Lakeside Crescent,
1292972415,-17.5240194,146.0274306,Edith Street,
1292981811,-17.5232009,146.0321379,Fitzgerald Esplanade,
1294275330,-27.5850103,153.2889300,Victoria Point Sharks Sports Club,
1295655627,-37.2802747,142.9301888,Alexandra Gardens,
1296096800,-33.7816039,150.9022809,Joseph Street,
1299188298,-37.7711462,144.9736250,Methven Park,
1305702297,-33.8584963,151.1835076,Darling Street,
1305702298,-33.8543845,151.1854441,Mort Street,
1306530271,-37.7561382,144.9883266,Turner Reserve,
1307602688,-27.6912270,153.0176730,Tovey Park,
1311572987,-33.7081158,151.0919023,Pretoria Parade,
1312656309,-33.4041196,151.3324322,Corella Crescent,
1313622366,-27.5650795,152.8913655,Booker Place Park,
1313624834,-27.5620481,152.8720081,Pioneer Crescent,
1313689824,-37.8546287,145.0944644,Park Avenue,
1313733538,-26.6842293,153.1321804,Fishing Boat Playground,
1313734798,-26.6847160,153.1283441,Pirate Ship Playground,
1314751916,-28.0743967,153.4249580,Coronet Crescent,
1314860972,-27.6657825,153.0426890,Estramina Park,
1319604618,-33.8812023,151.1275377,St John's Church Grounds,
1321228660,-34.0213880,151.1228210,Funz Play Cafe,
1321298138,-37.7186775,145.2857997,Wittons Reserve,
1321307830,-26.6225379,153.0474527,Muller Park,
1321308611,-26.6226435,153.0465300,Skatepark,
1323059804,-38.3959380,142.5023945,Hickford Parade,
1323059877,-38.3611227,142.5094141,Boston Drive,
1324537354,-28.0864989,153.4363381,Dunlin Drive,
1324538337,-28.0984005,153.4367970,Dunlin Drive,
1324553429,-28.0778567,153.4294193,Green Bridge,
1327155803,-36.3876890,145.3944396,Fenced Children's Playground,
1327223469,-33.7553249,150.6956434,Judges Park,
1330277746,-37.7659656,144.9844800,Ceres Cafe's Playground,The cafe is currently being rebuilt (till 2015 some time), but the playground is accessible.;
1330394265,-34.0002225,151.0348400,Hartog Close,
1330431560,-27.4188056,153.0687906,Playground,
1331902979,-33.9642534,151.0530453,Caledonia Crescent,
1333419862,-27.5202674,153.1962749,Sam Sciacca Sportsfields,
1336844482,-37.8008447,144.9873890,Perry Street,
1346609105,-33.7901788,151.2872283,North Steyne,
1348795918,-37.8445171,145.0763854,Anniversary Trail,
1354243783,-37.8861050,144.6323190,Presidents Park,
1356176214,-27.9130919,152.8837745,Day use park,
1361442309,-33.6846004,151.1847898,Anembo Reserve Trail,
1361442347,-33.6846004,151.1847898,Anembo Reserve Trail,
1365009815,-37.9950251,145.3074359,Jack Thomas Reserve,
1365110395,-35.3505144,149.0283161,Chauvel Circle,
1365119812,-37.8235313,145.2307177,Jubilee Park,
1365122994,-37.8218871,145.2332711,Elephant Playground,
1369055503,-37.8183000,145.2236600,Belgrave / Lilydale Line,
1373319421,-28.7955110,153.5944590,Rayner Lane,
1373409866,-28.0729545,153.4305659,Keith Dudman Park,
1378743284,-37.8108211,145.2115197,Mullum Mullum Creek Trail,
1385665304,-30.1014941,153.1973673,Council Playground,
1387056997,-37.8428801,145.0858169,Lynden Park,
1387058059,-37.8330772,145.0937991,South Surrey Park,
1387123841,-37.8389575,145.0955426,Coopers Reserve,
1390286295,-37.7820024,145.2455419,Quambee Reserve,
1390407059,-27.9028496,152.8802525,Skills Area,
1391988549,-30.0750867,153.2014966,Orchid Road,
1393302336,-30.1097250,153.2024607,Beach Access,
1393351830,-38.3318765,143.5713247,Donaldson Street,
1393619805,-38.3507418,143.5685081,Begley Street,
1396012790,-35.2064320,149.0747860,Evatt Primary School,
1397016055,-37.8271832,145.2071789,Orient Avenue,
1398618759,-37.7317752,145.4445252,Killara Road,
1399501466,-30.2083109,153.1558949,Moonee Beach Road,
1399545795,-27.3892971,153.0050659,Senses Trail,
1402266527,-37.7079113,145.1270770,Fernside Avenue,
1402270190,-37.7057213,145.1002362,Greensborough War Memorial Park,
1405459348,-38.0338817,145.3060191,Skate/Scooter/BMX ramps,
1405460796,-38.0332352,145.3069123,Dirt BMX track,
1405610553,-35.3702801,149.0986633,Dyraaba Court,
1406599306,-37.8623250,144.9035760,Commonwealth Reserve,
1406628360,-35.3741015,149.1024936,Gatton Street,
1413293892,-27.6098530,152.9695422,Heath Street,
1413979221,-26.3970700,152.8779117,Blackbean Court,
1416870008,-27.2623969,153.0346999,Coriander Drive,
1418890797,-33.7858615,151.1016268,Granny Smith Memorial Park,
1418928672,-27.6155114,152.9588000,Pine Village Park,
1418928751,-27.6187362,152.9589096,Boronia Park,
1420049191,-27.2178985,153.1052339,Bellevue Park,
1420660780,-34.0281127,151.0616212,Clio Street Reserve,
1420840321,-35.1296385,147.3242885,Crisp Drive,
1421473022,-37.9006430,144.6644520,Kelly Park Playground,
1426026611,-37.7753154,144.9940841,Peters Reserve,
1426084342,-37.7365550,145.2203779,Yarra River,
1426729586,-27.7048556,153.1444576,Katrina Crescent,
1427015785,-37.7882008,145.0062624,Yarra Bend Park,
1427015790,-37.7902272,145.0037197,Quarries Park,
1427891998,-37.8094606,140.7879185,Carmel Drive,
1428927474,-37.8122828,145.3458148,Mount Dandenong Tourist Road,
1428996252,-37.8925135,145.2362496,Benedikt Reserve,
1429602067,-37.8056840,144.9855950,Cambridge Street Reserve,
1429602787,-26.3971252,146.2625945,Delta Court,
1430716579,-37.8322115,145.0003586,McConchie Reserve,
1432020215,-38.3154459,146.4155274,Auchterlonie  Cresent,
1432020216,-38.3040640,146.4147978,Maple Cresent,
1432020217,-38.3193517,146.4229088,Amaroo Drive,
1432590900,-37.6351920,145.0984330,Hawkstowe Park,
1434146437,-27.4881764,152.9425021,Sleaford Street,
1435183731,-35.1183854,147.3514066,Embelen Street,
1435184048,-35.1554814,147.3600924,Tamar Drive,
1436112359,-37.5309940,144.9752310,Springs Road,
1436448642,-37.7823594,145.0033361,Oldis Gardens,
1437434142,-37.8513750,145.1908881,Bellbird Dell Reserve,
1437467330,-27.8835272,153.3961354,Abalone Avenue,
1437467369,-27.8854925,153.3960335,The Espanade,
1437467376,-27.8849307,153.3960791,The Espanade,
1437467392,-27.8833659,153.3961689,The Espanade,
1440102907,-27.0848250,153.1585860,Toorbul St,
1442183324,-25.7955545,146.5877762,Forest Street,
1443704303,-35.2311320,149.1126030,Oakover Circuit,
1443712756,-35.2316640,149.1019690,Liffey Circuit,
1444574466,-35.1611666,147.3575716,Stirling Boulevard,
1445170714,-34.2205318,150.5795027,Tahmoor Recreational Grounds,
1445380533,-27.2162464,153.0110259,Medinah Circuit,
1447497349,-30.4671173,153.0431834,Alma Doepel Play Area,
1451311132,-37.7463503,145.0889526,Main Yarra Trail,
1451323799,-37.7351012,145.0861644,Price Park,
1458756037,-37.7406148,145.0784440,Rosanna Reserve,
1462015478,-24.8650127,151.1237967,Memorial Park,
1462015482,-24.8643411,151.1091733,Apex Park,
1463853233,-33.8478507,151.2316675,Jasmine Walk,Wheelchair: limited;
1464790870,-27.5407473,153.2679404,Bay Street,
1464819291,-27.5464089,153.2688274,Pleasant Court,
1466849886,-37.9189879,147.7097654,Sunset Drive,
1471797981,-37.7316194,145.0691074,Rosanna Parklands,
1472857925,-27.5533517,153.2683113,Portias Street,
1473991348,-37.7550088,145.0735393,Banksia Park,
1477302928,-37.8628413,145.2321111,Harrow Gardens,
1477471973,-35.0715278,147.3567127,Manneke Park,
1480036263,-27.2620517,152.9337710,McGavin View Playground,
1482056830,-27.5545066,153.2540231,Park Street,
1482089723,-27.5530752,153.2639995,Melanie Street,
1484512686,-32.1921936,152.5209259,Forster Heights Park,
1488503194,-34.7659929,140.3091856,West Terrace,
1494017082,-17.2701438,145.5835120,Eacham Road,
1502350817,-28.0138069,153.3819753,Garden Grove,
1507951255,-38.2293376,143.1490972,Jones Street,
1508284061,-37.9905911,145.1737452,Kingsclere Avenue,
1508434536,-27.6265557,152.9620237,Carisbrook Circuit,
1509506399,-37.8889874,144.7290742,Miles Franklin Park,
1509506419,-37.8907472,144.7246556,Richardson Parkway,
1511380989,-38.0802870,142.8083916,Officer Street,
1513666322,-33.8044148,151.1063154,Eulo Parade,
1513666895,-33.8011471,151.1080644,Aeolus Avenue,Wheelchair: yes;
1514118862,-27.6290777,152.9644665,Kondalilla Parade,
1514136283,-27.6373047,152.9799219,Hinchinbrook Circuit,
1526153957,-38.3668315,144.7857798,Harry Blythe Playground,
1528092905,-36.4475525,148.4510795,Bullocks Drive,
1528092906,-36.4474747,148.4511832,Bullocks Drive,
1535839627,-27.4605172,151.9485699,Michael Park,
1538811104,-37.8154890,145.1733811,Luckie Street,
1538816140,-37.8100865,145.1719488,Yamminga Park,
1539099758,-38.2470326,143.5128572,Playground,
1548517923,-35.0475560,150.6754039,Huskisson Beach Tourist Park,
1550096558,-35.0494579,150.6767340,Moona Moona Creek,
1553673655,-37.8160275,145.2070378,Deep Creek Road,
1556615361,-26.7133023,152.8718985,Martin Williams Walk,
1560664231,-37.7465867,145.0404267,Narvik Crescent,
1563384266,-35.4156691,149.0822714,Hallstrom Circuit,
1563450474,-36.7234076,144.2684187,Davies Court,
1565012816,-38.3195999,144.7129078,Back Beach Road,
1566648304,-31.8231463,149.1203196,Bandulla Street,
1569006553,-38.2724738,144.4896557,Sheepwash Road,
1575312110,-16.4879208,145.4674817,Esplanade,
1577806585,-33.8918146,151.1947039,Charles Kernan Reserve,
1580433837,-27.2190122,153.0450204,Finnegan Street,
1580539531,-27.2156552,153.0541284,Maria Court,
1580825014,-20.0902229,148.4976222,Dingo Beach Foreshore Reserve,
1581872193,-33.4838773,151.3258717,Playground,
1581872202,-33.4846088,151.3358307,Playground,
1581872210,-33.4585589,151.3140807,Playground,
1581901056,-33.4265228,151.3432466,Playground,
1582045504,-34.1843821,142.1665888,Hugh King Drive,With: skateboard ;
1583419892,-38.1578763,145.9338445,Sporting Walk of Fame,
1584187739,-33.4325770,151.3181855,Playground,
1590143077,-28.0004876,153.0237909,Hugo Drive,
1595931642,-27.4117369,152.9235246,Cemetery Road,
1596067612,-38.0638863,145.3426899,Cresthaven Boulevard,
1596083300,-38.0628741,145.4879577,Thwaites Road,
1596083303,-38.0632687,145.4903361,Gardenia Street,
1599734072,-38.0931274,147.0812401,Lions Park Playground,
1600670854,-37.8713946,145.0853014,Adventure Playground,
1601846626,-23.5545657,145.2887016,Palyground Skate Park,
1601907165,-38.0387020,145.3415050,Buchanan Park,
1601907220,-38.0392104,145.3415314,Buchanan Park,
1607063679,-36.9544936,140.7336223,McDonnell Street,
1607130272,-38.3123960,145.1869350,Kurrajong Street,
1608322466,-37.9827733,145.0502309,Wells Road,
1609994047,-32.9450298,151.7593374,Dixon Park,
1610069062,-32.9336577,151.7667191,Centennial Park,
1613911658,-33.8688083,151.1931642,Mount Street,
1613914489,-33.8653829,151.1921959,Pirrama Park,Wheelchair: yes;
1615189277,-37.7381686,145.0780151,Playground,
1617261016,-37.7402244,145.0511186,Shelley Reserve,
1618560372,-37.4193514,145.4264871,Melba Highway,
1619787800,-27.6007100,153.0670859,Byron Street,
1621206876,-27.6010423,153.0832007,Hair Park,
1623390560,-37.7764089,144.9743723,Douglas Reserve,
1626124688,-33.8319352,150.9821017,Pair of swings,
1629219841,-37.7801332,144.9845885,Janet Millman Reserve,
1629537560,-37.5290475,145.3390832,Bollygum Park,
1632496984,-21.0865468,149.1824180,Bedford Road,
1632556178,-33.6728567,151.2937664,Katrina Reserve,
1633549417,-37.7930202,144.9492817,RCH playground,
1636166543,-34.0482889,151.0869701,Old School Park,
1637386904,-21.1125408,149.1563186,Baxter Street Park,
1638639109,-21.1529895,149.1559303,Mackay Regional Botanic Gardens,
1638639110,-21.1525993,149.1557908,Mackay Regional Botanic Gardens,
1638651249,-21.0616187,149.1830251,Whitehaven Drive,
1641655108,-37.9592717,145.0661371,Friendship Square Reserve,
1641661483,-37.9653747,145.0700048,Cheltenham East Primary School,
1641678396,-37.9683795,145.0564945,Stanley Avenue,
1643746746,-38.0655445,145.4887324,Gardenia Street,
1645055602,-33.8128714,150.9851198,Ralph Street,
1645099956,-35.4239784,149.1343596,Heagney Crescent,
1646876520,-21.1122574,149.1457090,Royal Boulevard,
1648167914,-33.8573039,151.2055642,Pottinger Street,
1648215289,-32.6686282,151.7281539,Seaham Park,
1649891574,-27.3073839,151.8534525,Pioneer Park,
1653675106,-37.8670723,144.9052348,Rotary Park Playground,
1654398102,-37.8426416,145.0910713,Joffre Street,
1657067348,-37.7999468,145.0393294,Eglinton Reserve,
1657417667,-21.1189178,149.2218425,Mulherin Park,
1657417669,-21.1196782,149.2215526,Mulherin Park,
1658713397,-33.7513476,150.6810485,Ladbury Avenue,
1659648491,-33.8063641,151.2870278,Little Manly Cove,
1666603287,-27.5692464,153.3347173,Coochiemudlo Tip,
1668259738,-37.8413639,144.9714127,Albert Park,
1668364752,-37.8488128,144.9750407,Albert Park,
1674498876,-38.1925808,145.1460483,Baxter Tennis Club,
1674498995,-38.1934259,145.1427033,,
1675293255,-33.8562353,150.9105592,Kipling Park,
1675618141,-38.1981682,145.1537316,Swinton Court,
1675618179,-38.1938385,145.1575242,Jacaranda Drive,
1676410658,-37.7410949,144.7880324,Jamieson Street Reserve,
1679232407,-37.8013630,144.9969930,Studley Reserve,
1680941460,-33.8150131,151.0839560,Meadowbank Park,
1680942768,-27.4995737,152.9747978,Keating Park,
1680942773,-27.5063386,152.9729833,Taylor Bridge Reserve,
1680946251,-33.8070459,151.0926142,Anzac Park,
1680946253,-33.8146142,151.0896289,Bank Street,
1680959676,-33.7151648,151.0510870,Kanangra Crescent,
1681187430,-37.7752697,145.2714286,Yarrunga Reserve,
1681187541,-37.7741352,145.2704793,Yarrunga Reserve,
1682288543,-37.9246807,145.0303494,Victory Park,
1682288809,-37.9277106,145.0387526,Halley Park,
1682313148,-37.9277360,145.0382135,Halley Park,
1685501834,-37.8506068,145.0536830,Howard Dawson Reserve,
1691646580,-27.3849164,152.9338807,Linkwood Drive,
1694207460,-31.0557498,153.0529967,Hat Head Holiday Park,
1694295192,-35.1864720,149.1347328,Gungahlin Place,
1697676985,-38.1991984,145.1807076,Baxter - Tooradin Road,
1700580854,-21.0749636,149.2277543,Slade Court,
1702566961,-25.6429084,149.7954135,Hutton Street,
1702567045,-25.6411118,149.7977711,Memorial,
1707986140,-37.7368384,145.0408771,Boyd Crescent,
1708117939,-26.8259789,152.9593655,Skippy park,
1709522113,-37.8510338,145.0524432,Burke Road South Reserve,
1709522405,-37.8540412,145.0606508,Nettleton Park,
1710838863,-27.5945201,151.9560161,Stockton Court,
1712197733,-38.4743137,145.0154791,Cook Street,
1718963909,-21.0667218,149.1505660,Dawson Boulevard,
1721546075,-21.1465366,149.1972239,Queens Park,
1721736195,-38.3544170,144.9489948,Arthurs Seat Road,
1726388535,-28.8072372,153.5976120,Matilda Sreet,
1727244267,-33.7904921,151.1550204,Great North Walk,
1728582821,-21.4291837,149.2199698,Apex Park,
1731358031,-32.8958452,151.7009875,KU Kooinda,
1731358060,-32.8963238,151.7011111,KU Kintaiba,
1731646422,-21.3769498,149.3157997,Campwin Esplanade,
1731728048,-37.7718879,145.0146086,Rubie Thomson Reserve,
1734071340,-37.5558520,143.7880407,Park,
1734847125,-33.9320929,151.1189061,Bray Avenue,
1734850421,-33.0917546,151.5490116,Shingle Splitters,
1734852000,-37.9799038,145.2078846,Hemmings Park,
1734852015,-37.9804134,145.2080430,Hemmings Park Playground,
1734868870,-37.8119542,145.0684023,Deepdene Park Playground,
1734877390,-33.8970931,151.1569962,Albert Street,
1734890516,-33.9009290,151.1661934,Newington Rd Playground,
1735976102,-37.7885313,144.9938533,Mayors Park,
1738737127,-32.8942501,151.7057958,KU Wonnayba,
1738806346,-33.8998364,151.1910715,Renwick Street Playground,
1738807555,-33.8991390,151.1944190,Renwick Street,
1739963359,-33.8671168,151.1678708,Rozelle Common,
1741340972,-33.0781427,151.4490705,Cooranbong Park,
1742506227,-38.1784443,145.1619350,Q block,
1742549779,-33.9350835,151.1329777,Bardwell Road,
1742549785,-33.9335036,151.1322534,Darley Road,
1742882379,-33.9533054,151.0494703,Webb Street,
1744035557,-33.7786603,150.8715960,Western Sydney Parklands,
1744167642,-33.9052333,151.1696384,Enmore Park,
1744179062,-37.7412232,142.0355868,Riley Street,
1745055450,-38.0844598,144.3527018,Flamingo Reserve,
1745078678,-38.0979319,144.3609630,Waverley Reserve,
1745094918,-33.8313501,151.0888389,McLlwaine Park Playground,
1745101641,-33.8502397,151.0797623,Childrens Cycle Loop,
1747286028,-21.0741438,149.2144366,Swallow Street Park,
1749109029,-26.5400190,151.8382702,Downtown Community Health,
1749169852,-26.5390365,151.8333719,Kingaroy Memorial Park,
1749507197,-33.1110334,151.4854037,Macquarie Street,
1749529381,-33.1074855,151.5221601,Amos Street,
1750926170,-37.0905672,143.4723789,Avoca River,
1753797053,-37.9135610,145.3549391,Borthwick Park Reserve,
1759505445,-21.1736817,149.1492529,Mullers Park,
1763102150,-33.8803742,151.1862775,Dr Foley Rest Park,
1767430790,-33.8979662,151.2746794,Marks Park,
1767446219,-33.9289226,151.1294519,Sutton Avenue,
1769362083,-37.9074196,145.0456904,Joyce Park,
1774357863,-27.5624519,152.8993526,Sumners Road Park,
1778606042,-37.7966058,144.9206246,Small playground,
1778606043,-37.7954444,144.9210484,Newman Street,
1778611849,-37.7938166,144.9236877,Bayswater Road playground,
1779114875,-33.8019847,151.0209412,Barton Park,
1779114904,-33.8064957,151.0126907,Doyle Ground,
1780043443,-37.2600028,147.7223371,Tambo River,
1783487324,-38.3735529,142.4703206,Friendly Societies Park,
1783508881,-35.1908956,149.0500165,Bingley Crescent,
1788064702,-30.3278278,149.7833255,Collins Park,
1789554090,-37.1006585,147.5925555,Short street,
1789876905,-37.9562174,146.4054747,Knots Siding - Depot Road,
1792531004,-37.7133089,145.1352251,Meruka Park,
1792666545,-35.3265490,149.0802587,Scout Hall,
1792691729,-35.4400004,149.0977697,Beckett Street,
1793031659,-37.7802223,145.2401485,Quamby Road,
1793946473,-37.7911496,145.0352078,Kate Campbell Reserve,
1797833781,-35.3605692,149.0574253,Araluen Street,With: slide,swing ;
1798151562,-33.7216016,151.0863386,Hawkins Hall,
1798358299,-33.9558741,151.0400493,Cutting Reserve,
1798529866,-35.3518489,149.0526507,Witternoom Crescent,With: slide ;
1798922801,-35.3630488,149.0615530,Pandanus Street,With: slide,swing ;
1798995998,-35.3576577,149.0523562,Capel Place,With: slide;playhouse ;
1800132369,-33.9091317,151.2140787,Les Bridge Playground,
1800214653,-35.3544103,149.0584349,Arawang Primary School,With: slide;climbingframe ;
1800286926,-37.8488278,145.1496247,Holland Road,
1800286942,-37.8483870,145.1318255,Fulton Crescent,
1801441456,-35.3531888,149.0787889,Chifley Health and Wellbeing Hub,
1802299290,-33.7199065,151.0824012,Larool Playground,
1802417743,-33.9207699,151.2230232,John Calopedos Memorial Playground,
1802424431,-35.3622240,149.0515610,Hamersley Place,With: slide;climbingframe;playhouse ;
1803581103,-38.2094428,146.1292522,Princes Freeway,
1803597856,-35.3544824,149.0647974,Tiwi Place,
1803597869,-35.3573901,149.0635825,Nangor Street,With: slide;climbingframe;playhouse ;
1803963657,-35.3540550,149.0595891,Arawang Primary School,With: slide;climbingframe ;
1805734634,-33.7117765,151.0841207,Norman Avenue,
1806151852,-21.6889590,148.6898443,Perry Park,
1807142884,-21.0234700,149.1532085,Royal Sands Park,
1807142887,-21.0222632,149.1500167,Admiraty Court,
1807142898,-21.0023826,149.1539837,Shoal Point Park,
1807395144,-26.9332663,151.4518737,Challacombe Street,
1808476871,-37.7336007,144.9518065,Harmony Park,
1808744023,-21.1608357,149.0671415,Centenary Park,
1808744033,-21.1625736,149.0583073,Alsatia Park,
1812102585,-33.8888907,151.1969078,Vine Street Playground,
1813532908,-37.7448791,144.9371251,W. Mitchell Reserve,
1815686457,-33.2355631,151.5439173,Buff Point Avenue,
1817241749,-33.8977338,151.1232100,Peace Park,
1818321664,-37.6939720,144.8842474,Lackenheath Drive Reseve Park,
1818324890,-37.6195482,145.1024634,Conelly Way,
1818325696,-37.6255178,145.0948673,Buttress Crescent,
1818734183,-21.1450229,148.9440016,Chivers Street,
1821112609,-33.8878918,151.1995768,Strickland Park,
1823641667,-33.8908781,151.1992124,Pemulwuy Park,
1823641673,-33.8904409,151.1981584,Hugo Street,
1828429485,-36.3599673,146.3138257,Batchelors Green,
1828495237,-37.9308921,145.4580523,Emerald Lake Park,
1830641060,-35.3450069,149.0750730,Echo Place,
1830743872,-21.1653170,149.1545281,Col Story Rotary Park,
1832749014,-35.3365828,149.0740138,Longford Street,
1835037955,-33.8839152,151.1816809,May Pitt Playground,
1836555517,-32.9336819,151.7790247,King Edward Park,
1837582972,-32.9408177,151.7647258,Empire Park,
1840757502,-33.8018965,150.6889723,Branksome Way,
1843246436,-33.9031157,151.1081053,Cowper Street,
1845470120,-37.7734431,145.2475304,Hutchins Court,
1845470123,-37.7784083,145.2476270,Primary School,
1847948068,-37.7379616,144.9794697,De Chene Reserve,
1847948370,-37.7333490,144.9828174,Cox Reserve,
1847964327,-28.8201704,153.5859400,Ridgeview Crescent,
1848204272,-33.7827977,150.6736402,The Salvation Army,
1850721687,-33.8957165,151.1589757,Maundrell Park,
1851484994,-21.0632436,149.1551745,Theodore Crescent,
1852766770,-33.8951198,151.1622774,Trafalgar Street,
1852786769,-33.8913527,151.1512911,Petersham Park,
1853706567,-33.8891531,151.2117868,Ward Park,
1853828909,-33.8899919,151.2028361,Reconciliation Park,
1854216727,-33.8919001,151.1555897,Brighton Street,
1854217931,-33.8913568,151.1658572,Clarendon Street,
1855351902,-33.8931927,151.2113884,Marriott Street Reserve,
1855536911,-33.7797669,150.6712607,,
1861339571,-27.9063867,153.3022662,White Park Drive,
1862641614,-33.8980534,151.1659908,Merchant Street,
1862850069,-21.1105183,149.1721545,Mackay PCYC,
1863916330,-38.1355921,144.3202958,Kevin Kirby Reserve,
1865185038,-37.7944807,145.3831297,Olinda Creek,
1866674793,-17.0111481,145.7258735,Robert Road,
1866677535,-32.9323169,151.7597834,National Park,
1868558887,-32.9338421,151.7792059,King Edward Park,
1868565160,-37.7502910,145.1756168,Mullum Mullum Creek,
1870876520,-32.4111536,152.2089352,Wade Park,
1870880170,-38.1260626,144.3316153,Hamlyn Park,
1870880218,-38.1355593,144.3310630,Peter Lowe Reserve,
1871385171,-38.6664328,146.3227481,Sagasser Park,
1872453891,-27.8634730,153.3020527,Carolyn Street,
1874161061,-38.1360736,144.3375617,Bakers Reserve,
1875413091,-38.1383422,144.3274116,Herne Hill Reserve East,
1875413106,-38.1325954,144.3264085,Western Heights Uniting Church,
1877118933,-37.8211352,145.0423283,Central Gardens,
1877259743,-37.8181095,145.0610632,Norway Reserve,
1877473944,-32.9269932,151.6275701,Turnbull Street,
1878361671,-33.8903541,151.2641750,Martins Avenue,
1878399201,-33.8951608,151.2590198,Waverley Park,
1880391460,-38.2524326,145.0422285,Dog area,
1881974149,-37.8329490,145.2072517,Andrew Street,
1894463381,-37.7595550,145.1803437,Mullum Mullum Linear Park,
1894595626,-21.1508552,149.2040487,Iluka Park,
1895625649,-37.7736146,145.2417861,Landau Drive,
1896019361,-37.9918200,145.0842472,Gerry Green Reserve,
1896025271,-37.9920441,145.0924655,Warren Road,
1896323691,-35.3370217,149.0549027,Hilder Street,
1899324822,-37.9130327,145.0513569,McKinnon Reserve,
1899906756,-33.8830693,151.1652023,Styles Street,
1901369120,-26.4589264,152.6793974,Bert Smith Memorial Park,
1901387239,-26.4161953,152.9091233,Cooroy Wanderer,
1903600215,-33.8877845,151.2158180,Arthur Street Reserve,
1903600217,-33.8861702,151.2157107,Bourke Street Cycleway,
1903777911,-33.7116572,151.1596820,Warrimoo Avenue,
1903829043,-37.8518657,145.1414605,Benwerrin Reserve,
1905073565,-37.8110110,145.0923949,Beckett Park,
1905959709,-33.7693267,151.1814363,Lindfield Oval,
1907868678,-37.8099137,145.1676192,Nunawading Tennis Club,
1908305233,-21.1227303,149.1809032,John Breen Park,
1908305245,-21.1231221,149.1813451,Centenary Place,
1909294797,-37.8442078,145.1505534,Holland Road,
1909294802,-37.8435575,145.1530130,Wurundjeri Trail,
1909311527,-37.8327819,145.1418336,Omeo Court,
1909311542,-37.8365272,145.1503469,Shawlands Avenue,
1909322664,-37.8474653,145.1386337,Former Brick Quarry,
1909329951,-37.8411742,145.1391831,Orchard Grove Reserve,
1909446410,-37.8584742,145.1477377,Gareth Drive,
1909651794,-37.8760574,145.1011786,Batesford Reserve,
1911494082,-33.7640900,151.2105557,Poppy Park Forestville,
1911494084,-33.7616996,151.2154481,Coles Forestville,
1911494088,-33.7529611,151.2205410,Wellman Road,
1911494093,-33.7580693,151.2153515,Epacris Avenue,
1911494096,-33.7593270,151.2025627,Arthur Street,
1911494101,-33.7559196,151.2171861,Lindsay Reserve,
1911494123,-33.7556163,151.2133881,Yalumba Close,
1911512355,-33.7651989,151.2190388,Garigal National Park,
1911512368,-33.7738828,151.2172612,Starkey Street,
1911597075,-33.8436572,151.2072298,Watt Park,
1911597079,-33.8273575,151.1944947,Newlands Park,
1912725077,-21.1471192,149.1960315,Queens Park,
1914128271,-21.1696437,149.1955664,Illawong Park,
1914128327,-21.1639359,149.1974041,Quota Park,
1915033967,-33.8123910,150.9828789,M.J. Bennett Reserve,
1918500580,-33.1064478,151.4858165,Newcastle Street,
1919387774,-37.8767756,144.7864720,G. F. Stirling Reserve,
1920196944,-35.3339013,149.0465702,Woolrych Street,
1921031544,-35.3442487,149.0662309,Rubbo Crescent,
1921032612,-35.3424339,149.0635464,Withers Place,
1921032616,-35.3463759,149.0715085,Oakey Hill Nature Reserve,
1924772259,-38.1650772,144.3361163,Barwon Valley Park,
1927111783,-38.1421442,144.3327055,Girton Reserve,
1927113151,-35.1088923,147.3692546,Victory Memorial Gardens,
1927124811,-35.1091863,147.3737446,Tarcutta Street,
1927150331,-35.0979818,147.3629749,Wiradjuri Crescent,
1927153912,-35.1040406,147.3631037,Lampe Avenue,
1927211913,-37.9234277,145.0085102,Lucas Street Reserve,
1927303793,-38.1427924,144.3609469,Western Beach,
1928130318,-37.8074027,145.2286351,Notlen Park,
1928272654,-37.8143813,145.0790598,Balwyn Park,
1928483065,-25.5069197,152.0470929,Lions Park,
1928513470,-25.5992930,152.2638451,Pioneers Park,
1928607976,-21.1581575,149.1954767,Tom McLean Park,
1929953766,-35.1486148,147.4612696,Cypress Street,
1930057271,-33.9271781,151.1047036,Yatama Park,
1930533284,-37.9405007,145.0169643,Thomas Street South Reserve,
1931493934,-37.9599058,145.0153175,Royal Avenue Reserve,
1931768090,-37.9512407,145.0293206,Marchant Street,
1931783484,-33.8164023,151.0513919,Fallon Street,
1931783496,-33.8143563,151.0421174,Burbang Reserve,
1931923528,-37.9651916,145.0190076,F.G. Tricks Reserve,
1931953345,-37.9517394,145.0436518,Lyle Anderson Reserve,
1931957902,-37.9501192,145.0246912,Unnamed Park,
1931996457,-37.9507635,145.0523232,Turner Road Reserve,
1933038793,-37.9595145,145.0710852,Le Page Park,
1933306752,-37.9805213,145.0606032,Elizabeth Street,
1933319896,-37.9560499,145.0618558,Chelsea Street Reserve,
1933329081,-37.9624916,145.0687357,Lorna Street Reserve,
1933339481,-25.5519273,152.6050576,Yengarie Park,
1934502479,-37.9686600,145.0876617,Kingston Heath Reserve,
1934536544,-37.9553868,145.0838742,Royal Troon Avenue,
1934722797,-33.7159707,151.1168398,Coonanbarra Road,
1935217866,-37.9883902,145.1361001,Braeside Park,
1935217878,-37.9870838,145.1312963,Dimar Court,
1935217897,-37.9861346,145.1272944,Heathland Way,
1936245866,-37.9830211,145.1198594,Village Drive,
1936262797,-37.9842493,145.1256154,Holland Avenue,
1937480140,-37.9868175,145.1408395,Spring Park Golf Course,
1937507977,-37.9772828,145.1332274,Coughlan Reserve,
1937717607,-37.9707562,145.1328733,The Grange Reserve,
1937717621,-37.9624015,145.1348233,Corio Drive,
1937717633,-37.9697624,145.1274686,Higgins Close Reserve,
1937981527,-33.0842892,151.5072213,Douglass Street,
1939546904,-33.2299362,151.5304493,Edgewater Road,
1939562817,-16.9153086,145.7729774,Esplanade,
1941092041,-35.3126201,150.4698468,Bangalow Street,
1941093770,-16.7840683,145.6991346,Vasey Esplanade,
1941154836,-34.2572221,150.5330574,Telopea Park,
1942539234,-16.7777506,145.6842354,Kewarra Street,
1943689133,-16.8869894,145.6979781,Skate Park,
1943951641,-33.8152446,150.9726747,Irwin Place,
1944313547,-38.0996273,144.0613267,Lawsons Park,
1946854702,-37.8137214,145.1473524,Stanley Grove,
1946854706,-37.8162769,145.1452657,Elmhurst Basin,
1948465217,-33.9094466,151.1130431,Canterbury Park Racecourse,
1948550638,-36.0806216,146.9308616,Fellows Park,
1950325226,-37.8281902,145.2368598,Apex Park,
1950739247,-21.1368585,149.1807612,Caneland Park,
1952372348,-36.1145045,146.8888605,Belvior Park,
1954589772,-38.1452452,144.3326609,Churchill Reserve,
1954734781,-26.4954080,153.0711671,,
1956184083,-27.5153077,153.2403672,Montgomery Drive,
1958507863,-33.9431057,151.0509107,Allotments,
1958507886,-33.9434506,151.0527829,Riverwood Skate Park,
1963881882,-37.8406607,145.3021851,Beresford Drive,
1963987792,-35.3475660,149.0937529,Tank Street,
1964036511,-28.0717132,152.2389389,Maryvale Park,
1964052107,-33.7877534,151.2394673,Castle Circuit,
1964052126,-33.7827418,151.2370048,Garigal National Park,
1964322953,-37.8294422,145.2605646,Miller Road,
1967766909,-38.0110158,145.3030200,Prospect Hill Road,
1969417018,-35.3408374,149.0915178,Eddison Park,
1969417195,-35.3417508,149.0901802,Eddison Park,
1970907989,-37.7670588,144.7889718,Clarian Street Reserve,
1971206866,-37.7496608,144.7840377,Moorland Park,
1972604013,-27.5392403,152.9669179,Fig Tree Pocket Road,
1974436994,-27.2523287,152.9747407,Shaded play area,
1974483254,-33.6842666,150.9286606,Hills Centenary Park,
1974543214,-33.7772443,151.1047580,Pioneer Park,
1974825606,-38.0784702,144.3424962,Kanooka Reserve,
1974825608,-38.0909173,144.3499285,Evans Reserve,
1974825616,-38.0866868,144.3370163,Jamina Reserve,
1974825626,-38.0891061,144.3534100,Rosella Reserve,
1974825629,-38.0865305,144.3370968,Jamina Court,
1974846924,-38.0751928,144.3501762,Glenelg Avenue,
1975774145,-38.2051086,146.0634560,Burnett Street,
1976221354,-35.2020175,149.1094139,Thadoona Street,
1977253520,-33.7682783,151.1083926,Waterloo Park,
1977411612,-33.7957892,151.1348311,Remote Control Car Track,
1977411664,-33.7960144,151.1344125,Blenheim Park,
1977734172,-37.7562949,144.8275956,Roussac Reserve,
1978990494,-33.7773018,151.0647689,Loftus Square Park,
1982729932,-33.9542578,151.1293431,Seaforth Park,
1986296699,-37.7996887,144.9798143,Fitzroy Primary School,
1986343335,-37.8393589,145.0351188,Kooyong Park,
1986353155,-37.7475656,144.7928357,Howardson Circuit,
1986475111,-37.8482083,145.0411463,Tooronga Park,
1990597014,-37.5929787,143.8382683,Karen Overington Playground,
1992124833,-32.0313223,147.9872722,Argonauts Park,
1995141390,-33.8013340,151.1359016,North Ryde Park,
1996313981,-30.5353920,145.1161883,Louth Tennis Club,
1996643863,-26.6157002,153.1012133,Cottonwood Street,
1998559682,-21.0797637,149.1500086,McCready Creek,
1998713356,-33.7232236,151.0896787,Brickpit Park,
1998713361,-33.7232401,151.0899931,Brickpit Park,
1998713376,-33.7232772,151.0902761,Brickpit Park,
1998713440,-33.7234218,151.0899782,Brickpit Park,
1999570583,-21.2620588,148.9738524,Langford Memorial Park,
1999731223,-33.9475928,151.1316108,Herbert Street,
2000799412,-35.0912132,144.0355772,Morago Street,
2000826192,-35.4703449,144.3959400,H.J. Robinson Park,
2003726727,-21.1251426,149.1665760,Goosepond Park,
2003920107,-37.8899615,144.6756734,Snipe Court,
2007176655,-33.9401692,151.1289836,Silver Jubilee Park,
2010073416,-37.8028001,144.9629556,Lincoln Square,
2010338000,-33.9811982,145.7082651,Goolgowi Pioneers Park,
2010338047,-33.9751316,145.7123849,Frank Campbell Crescent,
2012178256,-21.1177056,149.0998765,Jardine Drive,
2013018323,-35.7241153,143.9275427,Swan Street,
2016556505,-21.3885793,149.3107391,Brooksfield Park,
2017932142,-37.6376550,145.1921450,Hurstbridge - Arthurs Creek Road,
2017956014,-37.7937884,145.0610273,Harrison Reserve,
2019198070,-33.7796449,151.0976929,Nunook Reserve,
2019456466,-33.7824829,151.0888282,Forrester Park,
2022264121,-38.1967203,146.5447658,Performance area,
2022264137,-38.1963198,146.5448168,Performance area,
2022600889,-33.8186862,151.2179503,Tunks Park,
2024138678,-37.7668650,145.0030360,All Abilities Playground,Wheelchair: yes;
2024138706,-37.7686841,145.0077732,All Nations Park,
2024264821,-35.3477409,149.0380613,Rivett Community Park,
2024377111,-37.5897737,144.7268206,Parkview Drive Reserve,
2025953175,-38.1107780,147.0911347,Helen Crescent to Inglis Street Playground,
2025953178,-38.1041299,147.0938974,Ibis Avenue - Pelican Court Playground,
2025953181,-38.1156592,147.0919501,Helen Crescent - Montgomery Street Playground,
2025953187,-38.1181809,147.0880287,Patten Street - Woodburne Drive Playground,
2025953191,-38.1154587,147.0746660,Interactive Play Space,
2025953194,-38.1118712,147.0688804,Little McMillan Park Playground,
2025953197,-38.1012214,147.0857623,Cooper Court - Ruff Street Playground,
2025953198,-38.1140896,147.0800473,Sale Botanic Gardens Playground,
2025977837,-37.9747795,147.0931198,Swan Park Playground,
2025977838,-38.0966014,147.0760100,Apex Park Playground,
2025977839,-38.0848706,147.0523824,Boulevard Playground,
2025977840,-38.1024925,147.0337947,Wurruk Playground,
2025977841,-38.1029653,147.0628162,Brennan Park Playground,
2025977842,-38.0922720,147.0766832,Krista Court - Mark Avenue Playground,
2025985837,-37.9665374,146.9827711,Mafeking Hill Reserve Playground,
2025985840,-37.9604471,146.9825377,Victoria Park Playground,
2025985843,-37.9584508,147.0851376,Mountainview Drive Playground,
2025985849,-37.9653891,147.0795666,Soldiers Memorial Park Playground,
2025985855,-37.9712908,147.0799502,Apex Park Playground,
2025985859,-37.9645285,146.9871404,Fred Drury Reserve Playground,
2025985862,-37.9661673,147.0830615,Market Reserve Playground,
2025985865,-37.9667552,146.9714092,Macalister River Regional Park Playground,
2025999108,-37.9585037,146.9900747,Cameron Court - Dwyer Court - McAdam Street Playground,
2025999117,-37.9558961,146.9948812,Cameron Sporting Complex Playground,
2025999120,-37.9798284,146.7846926,Apex Park Playground,
2025999126,-37.9761665,146.7891773,Graves Court - Perry Court - Wickham Court Playground,
2026006303,-37.8846535,146.9888784,Boisdale Recreation Reserve Playground,
2026006304,-37.8934467,146.7829277,Coongulla Community Centre Reserve Playground,
2026006305,-37.9042198,146.9081383,Play Equipment,
2026006306,-38.0118767,146.6977729,Cricket Street Playground,
2026006307,-37.8427814,147.0705356,Anzac Park Playground,
2026009721,-37.4571033,147.2506518,Dargo Public Hall Playground,
2026013326,-38.1495919,146.7844515,Queen Street Reserve Playground,
2026013327,-38.1542343,146.7867528,Edward Crooke Park Playground,
2026013328,-38.1515641,146.7860769,Prince Street Reserve Playground,
2026014166,-38.0491699,147.5779276,Lions Park Playground,
2027200345,-38.2112494,147.4002312,Golden Beach Community Centre Playground,
2027200347,-38.6100238,146.8908475,McLoughlins Beach Playground,
2027200348,-38.5514570,146.9773327,Woodside Beach Road Playground,
2029631342,-27.5951361,152.9926819,Linacre Street Park,
2031419449,-37.7342169,145.0068549,Walter Reserve,
2031788230,-21.2302396,148.9582590,Kinchant Dam Road,
2033235671,-37.7738049,145.2571088,Warranwood Reserve Playground,
2033282324,-37.7840758,145.2692103,Sevenoaks Avenue,
2034525413,-33.0965031,147.1401427,Buckland Park,
2034525427,-33.0752729,147.1007233,Gum Bend Lake,
2035840673,-32.7238759,149.0509092,Mumbil Oval,
2039254996,-37.8724759,145.0729867,Hall,
2039254998,-37.8722727,145.0733568,Taylor Street,
2039254999,-37.8733080,145.0730376,Solway Primary School,
2042947084,-16.4578224,145.3725777,Foxton Street,
2043063192,-26.5304048,153.0924196,Tickle Park,
2045636377,-21.1820933,149.1483347,Canecutters Drive,
2049270778,-35.3342042,143.5460782,George Lay Park,
2049338952,-21.1594783,148.8646381,Victoria Street,
2050535705,-37.7941391,145.2533951,Highland Boulevard,
2050594549,-34.7502714,149.7115012,Montague Street,
2050594550,-34.7495066,149.7101574,,
2050597864,-34.7553602,149.7206063,Goulburn Visitor Information Centre,
2050642442,-21.1485604,148.9587911,Poulsen Drive,
2051101916,-36.7373132,149.9814771,Kianinny Bay,
2052617634,-37.7228997,145.0682565,Glenmore Street,
2053881228,-33.7491267,151.1115114,unnamed,
2053881255,-33.7529714,151.1119835,Auluba Reserve,
2053888072,-33.7546685,151.1162428,Geoffrey Street,
2059394317,-33.8702465,151.2357146,Yarranabbe Park,
2059418038,-33.8757761,151.2319139,Rushcutters Bay Park,
2059443961,-33.8950277,151.2341134,Centennial Park,
2067561714,-37.7802219,145.3168310,Woodville Road,
2067699618,-37.7801299,145.2850536,Warrien Reserve,
2071185372,-35.3515568,149.0977337,Barnet Close,
2072543966,-33.7632596,151.1259066,Sequoia Park,
2072547329,-33.7552519,151.1271659,Frogmore Park,
2072547330,-33.7611078,151.1226436,Applegum Way,
2072562752,-33.8783654,151.1845716,Wigram Lane,
2072564345,-33.8776640,151.1874148,Glebe Tram Stop entrance,
2072650908,-37.8306611,145.2313958,Ross Crescent,
2075551074,-36.3784709,142.9906444,Corack Street,
2075787846,-33.7606856,151.1279619,West Pymble Shops,
2075800661,-33.7680796,151.1255603,Boronga Avenue,
2077035154,-38.7581530,143.6708422,Foreshore Reserve,
2077129158,-37.8576091,145.0818644,Montana Street,
2077136067,-37.8521349,145.1110240,Sinnott Street Reserve,
2077440325,-21.0816755,149.1591735,Norm Shuttlewood Park,
2079360066,-33.8763960,151.1862779,Ernest Pederson Reserve,
2079584133,-33.7042653,151.2819677,Anana Reserve,
2080794392,-37.3119481,144.1421296,Hepburn Regional Park,
2082175169,-38.4003374,146.1573403,Strzelecki Highway,
2083980062,-32.7386682,151.8811905,Kindlebark Oval,
2083980092,-32.7407075,151.8715239,Boyd Oval 1,
2084002779,-33.0616130,151.5869178,Brooks Street,
2084134468,-35.3523690,149.0929434,Kelvin Court,
2084138572,-27.5417395,153.2066562,McTaggart Street,
2084138574,-27.5456381,153.2111052,Gundagai Drive,
2084407459,-27.5473242,153.2119023,Spirit Drive,
2084407461,-27.5516897,153.2209794,Lyndon Road,
2085237157,-30.9854790,151.5913290,McHattan Park,
2085252433,-37.7604551,145.1702156,Pines Learning & Activity Centre,
2086398875,-29.0546510,152.0160680,Manners Street,
2086398971,-37.7993170,144.9811112,Kevin Coombs House,
2088017393,-27.5685579,153.2137787,Mount Cotton Road,
2088081701,-35.3605284,149.0437250,Boucicault Place,
2088089922,-27.5291477,153.1856377,Killarney Crescent,
2088121920,-27.4915939,153.2440756,Jacob Street,
2088121939,-27.5022316,153.2399539,Belford Drive,
2088221159,-27.4955073,153.2108884,Pistachio Court,
2090684892,-33.8863514,151.0348456,Dawes Avenue,
2091671612,-35.3472508,149.0521846,Blue Range Park,
2091698094,-35.3365743,149.0329281,Glenmaggie Street,
2091835026,-35.3341792,149.0331867,Duff Preschool Unit,
2091835037,-35.3346124,149.0325414,Duffy Primary School,
2091835054,-35.3352815,149.0336686,Duffy Primary School,
2092044220,-27.5194596,153.2461478,Francis Street,
2093220229,-27.5596078,153.2647953,William Stewart Park,
2095741993,-27.8932703,153.3937607,Columbus Park,
2097537121,-33.2546988,149.1477427,Unknown,
2097754333,-27.8923865,153.3813865,Brady Park,
2097754560,-27.8992241,153.3988584,Hyacinth Avenue,
2097754563,-27.9023044,153.4017608,Spinnaker Park,
2100793657,-27.5524371,153.2514398,Flamingo Crescent,
2104078853,-38.1573148,145.1649899,Ferndale Reserve,
2104925766,-28.1812752,153.4344585,Hart Playground,
2105168537,-27.7242633,153.1933014,Saratoga Park,
2106454880,-38.0150028,145.1371222,Merri Drive,
2106456175,-38.0151591,145.1312053,Waterways Lake,
2106542763,-35.3370323,149.0447118,Bill Kennedy Memorial Park,
2106542771,-35.3372885,149.0447012,Bill Kennedy Memorial Park,
2106652606,-35.3336776,149.0506415,St Jude's Primary School,
2106654448,-35.3368502,149.0488783,Pearson Street,
2106755442,-33.7452176,151.1981015,Maitland Street,
2106755482,-33.7464331,151.1993568,Maitland Street,
2110405158,-33.7857544,150.8932937,Walpole Park,
2110514566,-37.7718414,144.8490532,Duke Street,
2111447266,-37.7166740,145.0705735,Vincent Street,
2111508812,-35.3345534,149.0414219,Embley Street,
2112051945,-28.0311043,153.4036458,Cypress Drive,
2115120867,-35.3338197,149.0563764,Alessandra Ashlie Fashion House,
2115178924,-33.7195453,151.0915162,Normanhurst Park,
2117130185,-35.3385008,149.0590913,McInnes Street,
2117168370,-37.9958455,145.2258442,Thomas P Carroll Reserve,
2117327149,-38.2252687,145.0392601,Elsie Dorrington Reserve,
2118911019,-33.7779490,150.8985330,Brewongle Walkway,
2118943997,-33.7677170,150.8931180,Lancaster Street,
2120292542,-37.9989692,145.0874211,White Street Reserve,
2120505033,-38.0101580,145.0938691,George Woods Reserve,
2120514587,-38.0023488,145.0969805,Doug Denyer Reserve,
2121813847,-37.9237505,145.2733058,Major Crescent,
2122286062,-33.7511390,151.0790111,Malton Road,
2123520955,-37.9334699,145.4405174,Puffing Billy Park Playground,
2123532999,-37.9292061,145.4459618,Emerald Lake Road,
2124553818,-38.0149867,145.3230281,Sage at Parkhill Family Bistro,
2124712625,-37.8053690,145.3565785,The Avenue,
2124712639,-37.8096136,145.3550469,Belvedere Drive,
2125873278,-37.7860570,145.3123940,Station Street,
2125895416,-37.8020934,145.3570688,Keith Hume Fraser Reserve,
2127427568,-35.3070850,149.1007080,YMCA Canberra Auxiliary,
2130038720,-32.9333692,151.7317244,Adamstown Public School,
2130274743,-37.7269984,145.0696402,Birdwood Avenue,
2132105216,-38.0503362,140.7156382,Eight Mile Creek Road,
2133530363,-37.9382382,145.0827947,Sherbrooke Avenue,
2133630027,-37.9267556,145.0220427,Dendy Park,
2134338301,-33.7653573,150.9528115,Mozart Street,
2138466150,-33.7052305,150.9510062,Mount Saint Francis Reserve,
2138828877,-33.8910063,151.1741900,O’Dea Reserve,
2139339035,-33.7984373,151.2409348,Seaforth Crescent,
2142227701,-35.3537502,149.0822036,Charteris Crescent,
2143930383,-37.8470809,145.2499782,Sydney Road Reserve,
2144888203,-32.8754929,151.6970985,Canoe Channel,
2147169308,-38.0197509,145.1044479,Carinya Avenue Reserve,
2147391065,-38.0247354,145.1062986,Albany Crescent Reserve,
2147434196,-33.7256903,150.7231456,Water Gum Drive,
2148314276,-31.4520165,152.7448504,Rocks Ferry Road,
2148478848,-38.0225907,145.1086815,Iluka Reserve,
2148534929,-37.8013520,144.9902420,Palmer Street,
2148623566,-37.7923330,144.9886900,Clifton Hill Primary School,
2149867707,-33.7677746,151.1382653,Bandalong Avenue,
2149867709,-33.7611320,151.1400758,Pee Wee Park,
2155275022,-37.7149106,144.9006981,Boeing Reserve,
2155467105,-37.7560306,144.9307643,Montgomery Reserve; Montgomery Park,
2156896248,-38.0203776,145.1106545,Aspendale Gardens,
2156897005,-35.4138260,149.1285700,Chisholm Shopping Centre,
2156912105,-35.4271100,149.1149550,Mack Street,
2158315881,-33.6942712,151.1011051,Jersey Street North,
2158340322,-38.0323776,145.1105780,Regents Park,
2161975547,-38.8387966,146.0015319,,
2162595192,-35.4139849,149.1105468,Jeffries Street,
2163742010,-36.1223050,146.8525873,Bill Black Park,
2164860683,-16.7637645,145.6750986,Arlington Esplanade,
2164870830,-30.7604740,151.4502426,Main Northen Railway,
2166361211,-31.3501799,150.6468772,Junction Park,
2166789238,-33.7513985,150.7166516,Kanagra Reserve,
2170084178,-33.7986335,151.1775271,Chatswood Public School,
2178006853,-33.7180334,151.0708515,swings,
2179041831,-37.9039948,145.1599395,Village Green Hotel,
2179074442,-37.8386484,145.0727879,Willison Park,
2179210424,-33.7746690,151.1458277,Beaumont Road Public School,
2179395657,-33.8280803,151.1819948,Gore Creek Reserve,
2179426230,-33.8091527,151.1717870,Stringybark Reserve,
2180574536,-38.0023832,145.0932061,Ben Kavanagh Reserve,
2180585426,-34.6478692,150.7747151,Rugby Oval,
2180617666,-29.9231651,150.9385140,Copeton Waters State Park,
2182901349,-30.8841395,153.0418165,Saltwater Creek,
2182908994,-37.8117230,144.9819430,Dragon Slide,
2184616689,-37.8253825,145.0235381,Morang Reserve,
2186576956,-37.7346570,144.6664899,Stewart Crescent,
2186577012,-37.7328784,144.6608801,Ian Cowie Recreation Reserve,
2186694283,-33.7881806,151.0730606,Terrys Creek,
2187981356,-33.7863402,150.9492050,Greystanes Creek Path,
2191792254,-33.7743126,150.8089165,Baynes St,
2192461862,-38.1672859,145.1866557,Cavill Close,
2195452727,-16.9842075,145.7350020,,
2196625671,-28.0724759,153.4457002,Brakes Crescent,
2196639334,-28.0745964,153.4397404,Ernie Tebb Park,
2196646374,-28.0788325,153.4295587,Green Bridge,
2196669085,-28.0721114,153.4266727,Miami Bushland Reserve,
2196855226,-28.0643201,153.4286307,Skate park,
2198691033,-38.0864090,145.1239038,Nepean Highway,
2198934836,-30.1406665,150.4440809,Upper Horton Showground,
2199031875,-34.3036720,150.9358889,Glastonbury Gardens,
